address,price,squarefootage,numbed,numbath,image-src,city,state,zipcode,population,MedianAge, MedianHouseholdIncome ,UnemploymentRate,PropertyCrimeIndex,PopulationGrowthRate,BachelorDegree,airquality,TotalHousingUnits,OwnerOccupiedHUs,Latitude,Longitude,Type,id
"5139 Western Tpke,","$259,900 ","1,646",4,2,https://photos.zillowstatic.com/cc_ft_960/ISbxvjdqoiekt21000000000.jpg,Altamont,NY,12009,"7,841",43,"$85,208 ",3.20%,20,-4.77%,875,37,"3,143","2,226",42.718573,-73.940552,Homes,1
"27 Cloverleaf Dr,","$130,000 ",2100,4,null,https://photos.zillowstatic.com/cc_ft_960/IS7ypg2lape0iu0000000000.jpg,Ballston Lake,NY,12009,"14,396",44,"$88,708 ",3.20%,17,11.81%,"2,370",33,"5,954","4,548",42.900134,-73.937255,Homes,2
"2965 N Mountain Ave,","$875,000 ","2,000",3,2,https://photos.zillowstatic.com/cc_ft_960/ISn2gshb4ljk8q1000000000.jpg,Claremont,CA,91711,"37,295",39,"$108,226 ",13.50%,106,0.16%,"6,232",71,"12,796","7,860",34.123424,-117.72919,Homes,3
"429 W 11th St,","$1,080,000 ","2,568",4,3,https://ssl.cdn-redfin.com/photo/45/bigphoto/685/CV20161685_1_0.jpg,Claremont,CA,91711,"37,295",39,"$108,227 ",13.50%,106,0.16%,"6,232",71,"12,796","7,860",34.104624,-117.721162,Homes,4
"3816 Hollins Ave,","$2,999,500 ","4,740",3,5,https://photos.zillowstatic.com/cc_ft_960/ISvc1urwu7qm820000000000.jpg,Claremont,CA,91711,"37,295",39,"$108,228 ",13.50%,106,0.16%,"6,232",71,"12,796","7,860",34.140343,-117.694636,Homes,5
"1081 Harding Ct,","$839,888 ","2,964",5,3,https://photos.zillowstatic.com/cc_ft_960/IS3bpd0bnpmh8d1000000000.jpg,Claremont,CA,91711,"37,295",39,"$108,229 ",13.50%,106,0.16%,"6,232",71,"12,796","7,860",34.114272,-117.736392,Homes,6
"746 N Harvard Ave,","$998,000 ","1,420",2,2,https://photos.zillowstatic.com/cc_ft_960/ISvc1a0qz8vv0l0000000000.jpg,Claremont,CA,91711,"37,295",39,"$108,230 ",13.50%,106,0.16%,"6,232",71,"12,796","7,860",34.101476,-117.716415,Homes,7
"918 Appalachian,","$1,498,000 ","4,502",5,5,https://ssl.cdn-redfin.com/photo/45/bigphoto/721/CV20207721_1_0.jpg,Claremont,CA,91711,"37,295",39,"$108,231 ",13.50%,106,0.16%,"6,232",71,"12,796","7,860",34.147055,-117.700392,Homes,8
"2177 W Silver Tree Rd,","$1,050,000 ","3,995",5,6,https://photos.zillowstatic.com/cc_ft_960/ISjvvwwd61hqxf0000000000.jpg,Claremont,CA,91711,"37,295",39,"$108,232 ",13.50%,106,0.16%,"6,232",71,"12,796","7,860",34.123054,-117.730623,Homes,9
"767 Pomello Dr,","$2,137,799 ","5,094",6,5,https://photos.zillowstatic.com/cc_ft_960/IS33ne1gryq5wm1000000000.jpg,Claremont,CA,91711,"37,295",39,"$108,233 ",13.50%,106,0.16%,"6,232",71,"12,796","7,860",34.13634,-117.704403,Homes,10
"3837 Shelter Grove Dr,","$722,294 ",1904,3,2,https://maps.googleapis.com/maps/api/streetview?location=3837+Shelter+Grove+Dr%2C+Claremont%2C+CA+91711&size=960x720&key=AIzaSyARFMLB1na-BBWf7_R3-5YOQQaHqEJf6RQ&source=outdoor&&signature=IdTiiaVCEyIV2BRbo3YFyenPH-8=,Claremont,CA,91711,"37,295",39,"$108,234 ",13.50%,106,0.16%,"6,232",71,"12,796","7,860",34.112405,-117.746604,Homes,11
"995 Harrison Ave,","$889,000 ","2,149",4,2,https://photos.zillowstatic.com/cc_ft_960/ISjr0u6uu3j2qj1000000000.jpg,Claremont,CA,91711,"37,295",39,"$108,235 ",13.50%,106,0.16%,"6,232",71,"12,796","7,860",34.098823,-117.729853,Homes,12
"784 Via Los Andes St,","$1,395,000 ","3,735",4,4,https://ssl.cdn-redfin.com/photo/45/bigphoto/136/CV20145136_3_1.jpg,Claremont,CA,91711,"37,295",39,"$108,236 ",13.50%,106,0.16%,"6,232",71,"12,796","7,860",34.133906,-117.730427,Homes,13
"1507 Benedict Ave,","$844,900 ","2,273",4,4,https://photos.zillowstatic.com/cc_ft_960/ISnelwl1zx60771000000000.jpg,Claremont,CA,91711,"37,295",39,"$108,237 ",13.50%,106,0.16%,"6,232",71,"12,796","7,860",34.111125,-117.70679,Homes,14
"1863 Oxford Ave,","$999,000 ","3,201",5,4,https://ssl.cdn-redfin.com/photo/45/bigphoto/851/TR20152851_2.jpg,Claremont,CA,91711,"37,295",39,"$108,238 ",13.50%,106,0.16%,"6,232",71,"12,796","7,860",34.11782,-117.724927,Homes,15
"2752 San Angelo Dr,","$1,475,000 ","3,246",5,4,https://photos.zillowstatic.com/cc_ft_960/ISzrbvkn2d9faq0000000000.jpg,Claremont,CA,91711,"37,295",39,"$108,239 ",13.50%,106,0.16%,"6,232",71,"12,796","7,860",34.13239,-117.727406,Homes,16
"4509 Bowie,","$1,888,000 ","6,077",6,7,https://ssl.cdn-redfin.com/photo/40/bigphoto/310/20-591310_2_5.jpg,Claremont,CA,91711,"37,295",39,"$108,240 ",13.50%,106,0.16%,"6,232",71,"12,796","7,860",34.152264,-117.693467,Homes,17
"876 Peninsula Ave,","$1,898,000 ","4,534",4,4,https://photos.zillowstatic.com/cc_ft_960/ISvspfxvndlz0u1000000000.jpg,Claremont,CA,91711,"37,295",39,"$108,241 ",13.50%,106,0.16%,"6,232",71,"12,796","7,860",34.139874,-117.700724,Homes,18
"656 Adirondack Ln,","$1,800,000 ","5,063",6,6,https://photos.zillowstatic.com/cc_ft_960/IS7ey9j97f32260000000000.jpg,Claremont,CA,91711,"37,295",39,"$108,242 ",13.50%,106,0.16%,"6,232",71,"12,796","7,860",34.140649,-117.705615,Homes,19
"4669 Webb Canyon Rd,","$1,250,000 ","2,805",5,4,https://photos.zillowstatic.com/cc_ft_960/IS3v86jaz4i2ij0000000000.jpg,Claremont,CA,91711,"37,295",39,"$108,243 ",13.50%,106,0.16%,"6,232",71,"12,796","7,860",34.126482,-117.742587,Homes,20
"915 Peninsula Ave,","$1,450,000 ","4,110",6,4,https://photos.zillowstatic.com/cc_ft_960/ISrlt66rlfwqqt1000000000.jpg,Claremont,CA,91711,"37,295",39,"$108,244 ",13.50%,106,0.16%,"6,232",71,"12,796","7,860",34.141076,-117.700206,Homes,21
"4068 Padua Ave,","$2,125,000 ","5,300",5,5,https://photos.zillowstatic.com/cc_ft_960/ISfg9uycuukmv40000000000.jpg,Claremont,CA,91711,"37,295",39,"$108,245 ",13.50%,106,0.16%,"6,232",71,"12,796","7,860",34.143,-117.698104,Homes,22
"777 Valparaiso Dr,","$1,418,000 ","3,615",6,5,https://photos.zillowstatic.com/cc_ft_960/ISzrv670bcz3ia0000000000.jpg,Claremont,CA,91711,"37,295",39,"$108,246 ",13.50%,106,0.16%,"6,232",71,"12,796","7,860",34.130328,-117.72884,Homes,23
"325 W 6th St,","$678,000 ","1,238",2,1,https://photos.zillowstatic.com/cc_ft_960/ISrt38w2971bor1000000000.jpg,Claremont,CA,91711,"37,295",39,"$108,246 ",13.50%,106,0.16%,"6,232",71,"12,796","7,860",34.099946,-117.719161,Homes,24
"156 E Blue Mountain Way,","$798,500 ","2,325",4,3,https://photos.zillowstatic.com/cc_ft_960/ISrtz8yt6lk7ll0000000000.jpg,Claremont,CA,91711,"37,295",39,"$108,246 ",13.50%,106,0.16%,"6,232",71,"12,796","7,860",34.120716,-117.714771,Homes,25
"895 Providence Pl,","$950,000 ","3,204",5,3,https://ssl.cdn-redfin.com/photo/45/mbpaddedwide/351/genMid.PW20171351_1_3.jpg,Claremont,CA,91711,"37,295",39,"$108,246 ",13.50%,106,0.16%,"6,232",71,"12,796","7,860",34.124463,-117.730326,Homes,26
"323 E Dunbarton Pl,","$930,000 ","2,023",4,2,https://ssl.cdn-redfin.com/photo/45/bigphoto/737/CV20156737_1_1.jpg,Claremont,CA,91711,"37,295",39,"$108,246 ",13.50%,106,0.16%,"6,232",71,"12,796","7,860",34.13084,-117.709848,Homes,27
"940 Deep Springs Dr,","$2,388,000 ","5,015",5,5,https://photos.zillowstatic.com/cc_ft_960/IS337aro2v9jju1000000000.jpg,Claremont,CA,91711,"37,295",39,"$108,246 ",13.50%,106,0.16%,"6,232",71,"12,796","7,860",34.141981,-117.700328,Homes,28
"3626 Moraine Ave,","$929,000 ","2,642",4,3,https://photos.zillowstatic.com/cc_ft_960/IS7eqb7veo9cx21000000000.jpg,Claremont,CA,91711,"37,295",39,"$108,246 ",13.50%,106,0.16%,"6,232",71,"12,796","7,860",34.135178,-117.696635,Homes,29
"622 Adirondack Ln,","$2,100,000 ","5,063",5,6,https://photos.zillowstatic.com/cc_ft_960/ISnulf5zl2blr31000000000.jpg,Claremont,CA,91711,"37,295",39,"$108,246 ",13.50%,106,0.16%,"6,232",71,"12,796","7,860",34.140556,-117.706484,Homes,30
"1416 Ashland Ave,","$729,900 ","2,204",4,2,https://photos.zillowstatic.com/cc_ft_960/ISrdfa9qor7hik1000000000.jpg,Claremont,CA,91711,"37,295",39,"$108,246 ",13.50%,106,0.16%,"6,232",71,"12,796","7,860",34.109366,-117.730598,Homes,31
"901 Alamosa Dr,","$2,999,000 ","8,175",5,8,https://photos.zillowstatic.com/cc_ft_960/ISr9oie5bep6s20000000000.jpg,Claremont,CA,91711,"37,295",39,"$108,246 ",13.50%,106,0.16%,"6,232",71,"12,796","7,860",34.132999,-117.701653,Homes,32
"886 Deep Springs Dr,","$1,599,000 ","5,010",5,6,https://ssl.cdn-redfin.com/photo/45/bigphoto/908/CV20138908_2_1.jpg,Claremont,CA,91711,"37,295",39,"$108,246 ",13.50%,106,0.16%,"6,232",71,"12,796","7,860",34.141057,-117.701352,Homes,33
"467 Independence Dr,","$1,580,000 ","4,328",5,4,https://photos.zillowstatic.com/cc_ft_960/ISzzlwmwjn2gwb1000000000.jpg,Claremont,CA,91711,"37,295",39,"$108,246 ",13.50%,106,0.16%,"6,232",71,"12,796","7,860",34.135246,-117.710534,Homes,34
"179 W Monterrey Dr,","$899,000 ","2,173",3,3,https://photos.zillowstatic.com/cc_ft_960/ISbh3bn8801xcm1000000000.jpg,Claremont,CA,91711,"37,295",39,"$108,246 ",13.50%,106,0.16%,"6,232",71,"12,796","7,860",34.12326,-117.717267,Homes,35
"909 Appalachian,","$1,590,000 ","4,121",5,5,https://photos.zillowstatic.com/cc_ft_960/ISbly1cndurl610000000000.jpg,Claremont,CA,91711,"37,295",39,"$108,246 ",13.50%,106,0.16%,"6,232",71,"12,796","7,860",34.147282,-117.700959,Homes,36
"703 Via San Simon,","$1,325,000 ","2,688",4,3,https://ssl.cdn-redfin.com/photo/45/mbpaddedwide/408/genMid.CV20197408_1.jpg,Claremont,CA,91711,"37,295",39,"$108,246 ",13.50%,106,0.16%,"6,232",71,"12,796","7,860",34.134514,-117.727452,Homes,37
"1019 Fuller Dr,","$1,950,000 ",4807,6,null,https://photos.zillowstatic.com/cc_ft_960/IS7ajz1cqhbowq0000000000.jpg,Claremont,CA,91711,"37,295",39,"$108,246 ",13.50%,106,0.16%,"6,232",71,"12,796","7,860",34.14669,-117.696828,Homes,38
"1698 Mural Dr,","$749,900 ","1,732",3,2,https://photos.zillowstatic.com/cc_ft_960/ISrx26xacflr5m0000000000.jpg,Claremont,CA,91711,"37,295",39,"$108,246 ",13.50%,106,0.16%,"6,232",71,"12,796","7,860",34.11422,-117.741832,Homes,39
"744 E Miramar Ave,","$1,299,000 ","3,803",4,5,https://ssl.cdn-redfin.com/photo/58/mbpaddedwide/163/genMid.319002163_1.jpg,Claremont,CA,91711,"37,295",39,"$108,246 ",13.50%,106,0.16%,"6,232",71,"12,796","7,860",34.128464,-117.701615,Homes,40
"4000 Via Padova,","$1,248,000 ","4,716",5,6,https://photos.zillowstatic.com/cc_ft_960/ISf4opj12m8hvz0000000000.jpg,Claremont,CA,91711,"37,295",39,"$108,246 ",13.50%,106,0.16%,"6,232",71,"12,796","7,860",34.142699,-117.705036,Homes,41
"162 Saratoga Rd,","$149,000 ",960,3,1,https://photos.zillowstatic.com/cc_ft_960/ISbhn22uqifnuk0000000000.jpg,Glenville,NY,12302,"27,504",44,"$66,915 ",3.60%,30,2.99%,"3,240",37,"11,726","8,080",42.862593,-73.932415,Homes,42
"144 Horstman Dr,","$289,900 ","1,716",4,3,https://photos.zillowstatic.com/cc_ft_960/ISb1rq63s2ld8e0000000000.jpg,Glenville,NY,12302,"27,504",44,"$66,915 ",3.60%,30,2.99%,"3,240",37,"11,726","8,080",42.845639,-73.956675,Homes,43
"112 Acorn Dr,","$279,900 ","2,600",4,3,https://photos.zillowstatic.com/cc_ft_960/ISjr41nuoamjs91000000000.jpg,Glenville,NY,12302,"27,504",44,"$66,915 ",3.60%,30,2.99%,"3,240",37,"11,726","8,080",42.862801,-73.915424,Homes,44
"178 Sunnyside Rd,","$295,000 ","1,716",3,2,https://photos.zillowstatic.com/cc_ft_960/IS7mgdo8zuzty31000000000.jpg,Glenville,NY,12302,"27,504",44,"$66,915 ",3.60%,30,2.99%,"3,240",37,"11,726","8,080",42.831626,-73.936095,Homes,45
"17 Jennifer Rd,","$239,900 ","1,690",3,3,https://photos.zillowstatic.com/cc_ft_960/ISbplu09foaswh1000000000.jpg,Glenville,NY,12302,"27,504",44,"$66,915 ",3.60%,30,2.99%,"3,240",37,"11,726","8,080",42.868385,-73.939351,Homes,46
"2 Lee Rd,","$229,000 ",1394,4,2,https://photos.zillowstatic.com/cc_ft_960/ISbd8ki5db6o8j1000000000.jpg,Glenville,NY,12302,"27,504",44,"$66,915 ",3.60%,30,2.99%,"3,240",37,"11,726","8,080",42.878442,-73.930618,Homes,47
"17 Lorwood Dr,","$297,900 ","2,366",4,3,https://photos.zillowstatic.com/cc_ft_960/ISf8fd3bc399301000000000.jpg,Glenville,NY,12302,"27,504",44,"$66,915 ",3.60%,30,2.99%,"3,240",37,"11,726","8,080",42.862358,-73.945941,Homes,48
"17 Jennifer Rd,","$239,900 ","1,690",3,3,https://photos.zillowstatic.com/cc_ft_960/ISbplu09foaswh1000000000.jpg,Glenville,NY,12302,"27,504",44,"$66,915 ",3.60%,30,2.99%,"3,240",37,"11,726","8,080",42.868385,-73.939351,Homes,50
"144 Horstman Dr,","$289,900 ","1,716",4,3,https://photos.zillowstatic.com/cc_ft_960/ISb1rq63s2ld8e0000000000.jpg,Glenville,NY,12302,"27,504",44,"$66,915 ",3.60%,30,2.99%,"3,240",37,"11,726","8,080",42.845639,-73.956675,Homes,51
"1104 Ridge Rd,","$282,000 ","1,348",3,2,https://photos.zillowstatic.com/cc_ft_960/ISfw5a921lubgs1000000000.jpg,Glenville,NY,12302,"27,504",44,"$66,915 ",3.60%,30,2.99%,"3,240",37,"11,726","8,080",42.872588,-73.991057,Homes,52
"57 Virginia Blvd,","$170,000 ","1,300",3,2,https://photos.zillowstatic.com/cc_ft_960/ISzv2r2l4nyn8o1000000000.jpg,Glenville,NY,12302,"27,504",44,"$66,915 ",3.60%,30,2.99%,"3,240",37,"11,726","8,080",42.840696,-73.973501,Homes,53
"660 Sacandaga Rd,","$289,900 ","2,949",4,2,https://photos.zillowstatic.com/cc_ft_960/ISfglv37extlg91000000000.jpg,Glenville,NY,12302,"27,504",44,"$66,915 ",3.60%,30,2.99%,"3,240",37,"11,726","8,080",42.874771,-73.97845,Homes,54
"3 Eltinge Pl,","$227,700 ","1,700",4,2,https://photos.zillowstatic.com/cc_ft_960/ISv8aafjl3vwer1000000000.jpg,Glenville,NY,12302,"27,504",44,"$66,915 ",3.60%,30,2.99%,"3,240",37,"11,726","8,080",42.887426,-73.91491,Homes,55
"1508 Washout Rd,","$249,900 ","2,186",3,2,https://photos.zillowstatic.com/cc_ft_960/ISnuxge4xmgoce1000000000.jpg,Glenville,NY,12302,"27,504",44,"$66,915 ",3.60%,30,2.99%,"3,240",37,"11,726","8,080",42.888764,-74.023099,Homes,56
"19 Kile Dr #A,","$309,900 ","1,795",4,3,https://photos.zillowstatic.com/cc_ft_960/ISr5lhs72zuhhd1000000000.jpg,Glenville,NY,12302,"27,504",44,"$66,915 ",3.60%,30,2.99%,"3,240",37,"11,726","8,080",42.893989,-73.914946,Homes,57
"777 Sacandaga Rd,","$259,900 ","2,300",4,3,https://photos.zillowstatic.com/cc_ft_960/ISzvy3yywmga6m1000000000.jpg,Glenville,NY,12302,"27,504",44,"$66,915 ",3.60%,30,2.99%,"3,240",37,"11,726","8,080",42.89077,-73.979385,Homes,58
"22 Slater Dr,","$237,900 ","1,526",3,3,https://photos.zillowstatic.com/cc_ft_960/IS7mkc2mzgmubp1000000000.jpg,Glenville,NY,12302,"27,504",44,"$66,915 ",3.60%,30,2.99%,"3,240",37,"11,726","8,080",42.886242,-73.914413,Homes,59
"111 Snake Hill Rd,","$174,900 ","2,136",4,3,https://photos.zillowstatic.com/cc_ft_960/ISr1u5ypvol5ck1000000000.jpg,Glenville,NY,12302,"27,504",44,"$66,915 ",3.60%,30,2.99%,"3,240",37,"11,726","8,080",42.88216,-73.962011,Homes,60
"301 Vley Rd,","$188,000 ","1,344",3,2,https://photos.zillowstatic.com/cc_ft_960/ISr1u1j7cuhxfh0000000000.jpg,Glenville,NY,12302,"27,504",44,"$66,915 ",3.60%,30,2.99%,"3,240",37,"11,726","8,080",42.838856,-73.967029,Homes,61
"4 Boyle Rd,","$240,900 ","2,340",4,3,https://photos.zillowstatic.com/cc_ft_960/ISjvzjlntyddjj0000000000.jpg,Glenville,NY,12302,"27,504",44,"$66,915 ",3.60%,30,2.99%,"3,240",37,"11,726","8,080",42.853151,-73.970701,Homes,62
"178 Sunnyside Rd,","$295,000 ","1,716",3,2,https://photos.zillowstatic.com/cc_ft_960/IS7mgdo8zuzty31000000000.jpg,Glenville,NY,12302,"27,504",44,"$66,915 ",3.60%,30,2.99%,"3,240",37,"11,726","8,080",42.831626,-73.936095,Homes,63
"35 Woodcrest Dr,","$249,000 ","2,034",5,2,https://photos.zillowstatic.com/cc_ft_960/ISvw4exr6aowql0000000000.jpg,Glenville,NY,12302,"27,504",44,"$66,915 ",3.60%,30,2.99%,"3,240",37,"11,726","8,080",42.86554,-73.913536,Homes,64
"704 Stephens Pl,","$579,900 ","3,457",4,5,https://photos.zillowstatic.com/cc_ft_960/ISnycvqci4vsa01000000000.jpg,Guilderland,NY,12302,"27,504",34,"$69,427 ",3.20%,46,1.59%,864,37,"2,151",492,42.719333,-73.921314,Homes,65
"5000 Live Oak Canyon Rd,","$4,500,000 ","3,628",3,4,https://photos.zillowstatic.com/cc_ft_960/ISmq69vd67ekmk0000000000.jpg,La Verne,CA,12084,"4,960",42,"$76,912 ",4.40%,20,-4.35%,"5,245",37,"12,163","8,543",34.13544,-117.74791,Homes,66
"6283 S Elati St,","$799,950 ","2,744",5,3,https://ssl.cdn-redfin.com/photo/94/mbpaddedwide/129/genMid.9506129_5.jpg,Littleton,CO,80120,"30,765",44,"$74,908 ",7.20%,111,0.99%,"7,111",46,"14,480","7,584",39.602656,-104.997975,Homes,67
"6162 S Aberdeen St,","$675,000 ","2,291",3,2,https://photos.zillowstatic.com/p_e/ISnqufcmdfpv1d0000000000.jpg,Littleton,CO,80120,"30,765",44,"$74,908 ",7.20%,111,0.99%,"7,111",46,"14,480","7,584",39.603775,-104.993164,Homes,68
"5956 S Sycamore St,","$1,500,000 ","4,492",5,5,https://photos.zillowstatic.com/p_e/IS7a3rwpxwl26m0000000000.jpg,Littleton,CO,80120,"30,765",44,"$74,908 ",7.20%,111,0.99%,"7,111",46,"14,480","7,584",39.608581,-105.014853,Homes,69
"7420 S Curtice Ct,","$839,900 ","4,131",6,5,https://maps.googleapis.com/maps/api/streetview?channel=mb-pdp-publicrecord&location=7420+S+Curtice+Ct%2C+Littleton%2C+CO+80120&size=665x441&source=outdoor&client=gme-redfin&signature=k4wmwibWOl9uz8rzRyhCoDlQzDM=,Littleton,CO,80120,"30,765",44,"$74,908 ",7.20%,111,0.99%,"7,111",46,"14,480","7,584",39.582616,-105.01984,Homes,70
"6590 S Windermere St,","$442,157 ","1,601",3,2,https://photos.zillowstatic.com/p_e/ISzfqu0jr1biu61000000000.jpg,Littleton,CO,80120,"30,765",44,"$74,908 ",7.20%,111,0.99%,"7,111",46,"14,480","7,584",39.597113,-105.006729,Homes,71
"6220 S Windermere St,","$575,000 ","2,240",4,2,https://photos.zillowstatic.com/p_e/IS7av8dcp9w3jq1000000000.jpg,Littleton,CO,80120,"30,765",44,"$74,908 ",7.20%,111,0.99%,"7,111",46,"14,480","7,584",39.603751,-105.006604,Homes,72
"2889 W Long Cir APT D,","$400,000 ","1,865",4,4,https://photos.zillowstatic.com/p_e/ISrt349yiy10ur1000000000.jpg,Littleton,CO,80120,"30,765",44,"$74,908 ",7.20%,111,0.99%,"7,111",46,"14,480","7,584",39.574364,-105.024033,Homes,73
"6035 S Bannock St,","$519,500 ","2,700",3,2,https://photos.zillowstatic.com/p_e/ISne9rxxvtv2gm0000000000.jpg,Littleton,CO,80120,"30,765",44,"$74,908 ",7.20%,111,0.99%,"7,111",46,"14,480","7,584",39.606838,-104.990036,Homes,74
"1803 W Kettle Ave,","$765,000 ","4,034",5,4,https://photos.zillowstatic.com/p_e/IS3n674rhg5h5s0000000000.jpg,Littleton,CO,80120,"30,765",44,"$74,908 ",7.20%,111,0.99%,"7,111",46,"14,480","7,584",39.578772,-105.009676,Homes,75
"421 W Jamison Pl,","$554,900 ","3,360",5,4,https://ssl.cdn-redfin.com/photo/94/mbpaddedwide/887/genMid.4153887_G.jpg,Littleton,CO,80120,"30,765",44,"$74,908 ",7.20%,111,0.99%,"7,111",46,"14,480","7,584",39.57763,-104.993231,Homes,76
"519 W Ridge Rd,","$549,900 ","2,580",4,3,https://photos.zillowstatic.com/p_e/ISfw9xdk542qbn0000000000.jpg,Littleton,CO,80120,"30,765",44,"$74,908 ",7.20%,111,0.99%,"7,111",46,"14,480","7,584",39.59002,-104.993871,Homes,77
"6551 S Cedar St,","$450,000 ","1,976",5,3,https://ssl.cdn-redfin.com/photo/94/mbpaddedwide/795/genMid.2627795_0.jpg,Littleton,CO,80120,"30,765",44,"$74,908 ",7.20%,111,0.99%,"7,111",46,"14,480","7,584",39.597833,-105.00605,Homes,78
"505 Rangeview Dr,","$1,950,000 ","5,697",5,5,https://photos.zillowstatic.com/p_e/ISjvvgwuqg17q31000000000.jpg,Littleton,CO,80120,"30,765",44,"$74,908 ",7.20%,111,0.99%,"7,111",46,"14,480","7,584",39.583561,-105.010653,Homes,79
"7730 S Lakeview Ct,","$724,900 ","3,589",4,3,https://photos.zillowstatic.com/p_e/ISjv7i1h4bnz1m0000000000.jpg,Littleton,CO,80120,"30,765",44,"$74,908 ",7.20%,111,0.99%,"7,111",46,"14,480","7,584",39.578391,-104.995926,Homes,80
"1725 Graham Ln,","$2,700,000 ","9,609",7,6,https://photos.zillowstatic.com/p_e/IS3fonquxkz76h1000000000.jpg,Littleton,CO,80120,"30,765",44,"$74,908 ",7.20%,111,0.99%,"7,111",46,"14,480","7,584",39.582573,-105.012179,Homes,81
"1405 W Hinsdale Dr,","$550,000 ","3,164",4,3,https://ssl.cdn-redfin.com/photo/94/bigphoto/967/7653967_0.jpg,Littleton,CO,80120,"30,765",44,"$74,908 ",7.20%,111,0.99%,"7,111",46,"14,480","7,584",39.583116,-105.004887,Homes,82
"1479 W Ridge Rd,","$525,000 ","2,853",3,3,https://photos.zillowstatic.com/p_e/ISv0wlowdcuchg1000000000.jpg,Littleton,CO,80120,"30,765",44,"$74,908 ",7.20%,111,0.99%,"7,111",46,"14,480","7,584",39.595778,-105.005479,Homes,83
"1529 W Sterne Pkwy,","$475,000 ","1,944",4,3,https://photos.zillowstatic.com/p_e/ISjndt34205q100000000000.jpg,Littleton,CO,80120,"30,765",44,"$74,908 ",7.20%,111,0.99%,"7,111",46,"14,480","7,584",39.602846,-105.00613,Homes,84
"7074 S Costilla St,","$625,000 ","2,368",5,3,https://photos.zillowstatic.com/p_e/IS76k5o0rtx6di0000000000.jpg,Littleton,CO,80120,"30,765",44,"$74,908 ",7.20%,111,0.99%,"7,111",46,"14,480","7,584",39.590539,-105.020603,Homes,85
"5828 S Louthan St,","$750,000 ","3,352",4,3,https://ssl.cdn-redfin.com/photo/94/mbpaddedwide/059/genMid.5978059_1.jpg,Littleton,CO,80120,"30,765",44,"$74,908 ",7.20%,111,0.99%,"7,111",46,"14,480","7,584",39.610663,-105.007725,Homes,86
"5613 S Datura St,","$850,500 ","2,740",4,5,https://ssl.cdn-redfin.com/photo/94/mbpaddedwide/136/genMid.4866136_4.jpg,Littleton,CO,80120,"30,765",44,"$74,908 ",7.20%,111,0.99%,"7,111",46,"14,480","7,584",39.614769,-105.004605,Homes,87
"1643 W Kettle Ave,","$764,000 ","3,765",5,4,https://ssl.cdn-redfin.com/photo/94/mbpaddedwide/732/genMid.3458732_3.jpg,Littleton,CO,80120,"30,765",44,"$74,908 ",7.20%,111,0.99%,"7,111",46,"14,480","7,584",39.578936,-105.007898,Homes,88
"2494 W Peakview Ct,","$889,000 ","4,465",4,5,https://photos.zillowstatic.com/p_e/ISjzmsqg4dhi911000000000.jpg,Littleton,CO,80120,"30,765",44,"$74,908 ",7.20%,111,0.99%,"7,111",46,"14,480","7,584",39.59918,-105.019388,Homes,89
"531 E Nichols Dr,","$509,550 ","2,514",3,4,https://photos.zillowstatic.com/p_e/IS3n674rhg5h5s0000000000.jpg,Littleton,CO,80122,"31,628",47,"$102,769 ",6.90%,33,0.87%,"8,705",46,"13,179","10,413",39.569869,-104.982703,Homes,90
"7985 S Logan Dr,","$555,000 ","2,993",5,4,https://ssl.cdn-redfin.com/photo/94/mbpaddedwide/614/genMid.2103614_2.jpg,Littleton,CO,80122,"31,628",47,"$102,769 ",6.90%,33,0.87%,"8,705",46,"13,179","10,413",39.571084,-104.98361,Homes,91
"546 E Hinsdale Ave,","$510,000 ","1,722",2,3,https://ssl.cdn-redfin.com/photo/94/mbpaddedwide/301/genMid.5051301_I.jpg,Littleton,CO,80122,"31,628",47,"$102,769 ",6.90%,33,0.87%,"8,705",46,"13,179","10,413",39.582298,-104.982365,Homes,92
"5028 W Maplewood Ave,","$800,000 ","3,536",4,4,https://ssl.cdn-redfin.com/photo/94/mbpaddedwide/523/genMid.2065523_0.jpg,Littleton,CO,80123,"48,401",42,"$86,094 ",6.40%,61,0.67%,"10,677",46,"20,552","13,924",39.605382,-105.051054,Homes,93
"5770 S Julian St,","$450,000 ","2,080",4,2,https://photos.zillowstatic.com/p_e/ISjzarl2xec8zb0000000000.jpg,Littleton,CO,80123,"48,401",42,"$86,094 ",6.40%,61,0.67%,"10,677",46,"20,552","13,924",39.613782,-105.030234,Homes,94
"5028 S Michigan Ct,","$455,000 ","1,616",3,2,https://photos.zillowstatic.com/p_e/ISjb8hd3imajue1000000000.jpg,Littleton,CO,80123,"48,401",42,"$86,094 ",6.40%,61,0.67%,"10,677",46,"20,552","13,924",39.625925,-105.037186,Homes,95
"5112 S Osceola St,","$450,000 ","2,240",4,3,https://ssl.cdn-redfin.com/photo/94/mbpaddedwide/256/genMid.4261256_3.jpg,Littleton,CO,80123,"48,401",42,"$86,094 ",6.40%,61,0.67%,"10,677",46,"20,552","13,924",39.626187,-105.041638,Homes,96
"5963 Wood Sorrel Way,","$1,190,000 ","5,581",5,5,https://ssl.cdn-redfin.com/photo/94/mbpaddedwide/521/genMid.3883521_3.jpg,Littleton,CO,80123,"48,401",42,"$86,094 ",6.40%,61,0.67%,"10,677",46,"20,552","13,924",39.60853,-105.044166,Homes,97
"3690 W Latonka Rd,","$440,000 ","2,370",4,2,https://photos.zillowstatic.com/p_e/ISbhr5j4uk9awi0000000000.jpg,Littleton,CO,80123,"48,401",42,"$86,094 ",6.40%,61,0.67%,"10,677",46,"20,552","13,924",39.621046,-105.035804,Homes,98
"Buildable plan: Residence 2804, Amberly at Sterling Ranch,","$458,900 ","2,016",3,3,https://photos.zillowstatic.com/cc_ft_960/ISb13w6wus82090000000000.jpg,Littleton,CO,80125,"10,531",38,"$103,835 ",2.70%,5,7.80%,"9,768",46,"19,407","13,173",39.495327,-105.05897,Homes,99
"Buildable plan: Bryce II, Sterling Ranch : The Icon Collection,","$747,900 ","3,184",3,4,https://photos.zillowstatic.com/cc_ft_960/ISvoij4ds8pepx0000000000.jpg,Littleton,CO,80125,"10,531",38,"$103,835 ",2.70%,5,7.80%,"9,768",46,"19,407","13,173",39.495327,-105.05897,Homes,100
"Buildable plan: Residence 2802, Amberly at Sterling Ranch,","$443,900 ","1,578",3,3,https://photos.zillowstatic.com/cc_ft_960/IS7qb88mbp5rz80000000000.jpg,Littleton,CO,80125,"10,531",38,"$103,835 ",2.70%,5,7.80%,"9,768",46,"19,407","13,173",39.495327,-105.05897,Homes,101
"8750 Hunters Hill Ln,","$1,149,900 ","5,281",5,4,https://photos.zillowstatic.com/p_e/IS7i9p57ax66ou0000000000.jpg,Littleton,CO,80125,"10,531",38,"$103,835 ",2.70%,5,7.80%,"9,768",46,"19,407","13,173",39.489215,-105.080466,Homes,102
"Buildable plan: 3652 Embark, Harmony at Solstice,","$491,990 ","2,232",3,3,https://photos.zillowstatic.com/cc_ft_960/ISfseiullb5ffg1000000000.jpg,Littleton,CO,80125,"10,531",38,"$103,835 ",2.70%,5,7.80%,"9,768",46,"19,407","13,173",39.495327,-105.05897,Homes,103
"Buildable plan: SuperHome, Sterling Ranch : The Grand Collection I,","$737,900 ","4,155",6,5,https://photos.zillowstatic.com/cc_ft_960/ISzva5jh6mwt541000000000.jpg,Littleton,CO,80125,"10,531",38,"$103,835 ",2.70%,5,7.80%,"9,768",46,"19,407","13,173",39.495327,-105.05897,Homes,104
"Buildable plan: The Telluride Sterling 35s, Sterling Ranch Ascent Village,","$537,990 ","2,824",3,2,https://photos.zillowstatic.com/cc_ft_960/ISb1v5hsjgcmjh1000000000.jpg,Littleton,CO,80125,"10,531",38,"$103,835 ",2.70%,5,7.80%,"9,768",46,"19,407","13,173",39.495327,-105.05897,Homes,105
"Buildable plan: Ash, Sterling Ranch : The Elements Collection,","$470,900 ","1,812",3,3,https://photos.zillowstatic.com/cc_ft_960/ISnehlmnuzpc111000000000.jpg,Littleton,CO,80125,"10,531",38,"$103,835 ",2.70%,5,7.80%,"9,768",46,"19,407","13,173",39.495327,-105.05897,Homes,106
"Buildable plan: SuperHome, Sterling Ranch : The Grand Collection,","$737,900 ","4,155",6,5,https://photos.zillowstatic.com/cc_ft_960/ISbdsvwf2o1qb81000000000.jpg,Littleton,CO,80125,"10,531",38,"$103,835 ",2.70%,5,7.80%,"9,768",46,"19,407","13,173",39.495327,-105.05897,Homes,107
"Buildable plan: Lavender, Ascent Village at Sterling Ranch,","$475,950 ","1,740",3,2,https://photos.zillowstatic.com/cc_ft_960/ISfonilkrykf3w1000000000.jpg,Littleton,CO,80125,"10,531",38,"$103,835 ",2.70%,5,7.80%,"9,768",46,"19,407","13,173",39.495327,-105.05897,Homes,108
"8216 Estes Park Ave,","$770,000 ","5,015",3,3,https://photos.zillowstatic.com/p_e/ISn24jy4bvpo1m0000000000.jpg,Littleton,CO,80125,"10,531",38,"$103,835 ",2.70%,5,7.80%,"9,768",46,"19,407","13,173",39.498609,-105.039264,Homes,109
"Buildable plan: Teton II, Sterling Ranch : The Icon Collection,","$777,900 ","3,249",3,4,https://photos.zillowstatic.com/cc_ft_960/ISzbbk3pe1539x0000000000.jpg,Littleton,CO,80125,"10,531",38,"$103,835 ",2.70%,5,7.80%,"9,768",46,"19,407","13,173",39.495327,-105.05897,Homes,110
"Buildable plan: The Hayden Sterling 35s, Sterling Ranch Ascent Village,","$507,990 ","2,212",3,3,https://photos.zillowstatic.com/cc_ft_960/IS3vstylf84pjh1000000000.jpg,Littleton,CO,80125,"10,531",38,"$103,835 ",2.70%,5,7.80%,"9,768",46,"19,407","13,173",39.495327,-105.05897,Homes,111
"Buildable plan: 3655 Imagine, Harmony at Solstice,","$526,990 ","2,740",4,4,https://photos.zillowstatic.com/cc_ft_960/ISr98ib29ngnfg1000000000.jpg,Littleton,CO,80125,"10,531",38,"$103,835 ",2.70%,5,7.80%,"9,768",46,"19,407","13,173",39.495327,-105.05897,Homes,112
"7970 Gore Creek Ln,","$899,500 ","3,258",3,4,https://ssl.cdn-redfin.com/photo/94/mbpaddedwide/127/genMid.7066127_1.jpg,Littleton,CO,80125,"10,531",38,"$103,835 ",2.70%,5,7.80%,"9,768",46,"19,407","13,173",39.499512,-105.035262,Homes,113
"7984 Williams Fork Ave,","$525,051 ","2,016",3,3,https://photos.zillowstatic.com/p_e/ISfg1gmngej2fw0000000000.jpg,Littleton,CO,80125,"10,531",38,"$103,835 ",2.70%,5,7.80%,"9,768",46,"19,407","13,173",39.49286,-105.035787,Homes,114
"Buildable plan: Graham, Sterling Ranch : The Monarch Collection,","$548,900 ","1,972",3,2,https://photos.zillowstatic.com/cc_ft_960/ISf4w34dapp8251000000000.jpg,Littleton,CO,80125,"10,531",38,"$103,835 ",2.70%,5,7.80%,"9,768",46,"19,407","13,173",39.495327,-105.05897,Homes,115
"Buildable plan: Residence 2803, Amberly at Sterling Ranch,","$453,900 ","1,798",3,3,https://photos.zillowstatic.com/cc_ft_960/ISrd7k7939pwz80000000000.jpg,Littleton,CO,80125,"10,531",38,"$103,835 ",2.70%,5,7.80%,"9,768",46,"19,407","13,173",39.495327,-105.05897,Homes,116
"Buildable plan: Signature 4, Signature Portfolio at Sterling Ranch,","$539,880 ","2,059",2,2,https://ssl.cdn-redfin.com/photo/113/mbpaddedwide/849/genMid.Plan-141400849_0.jpg,Littleton,CO,80125,"10,531",38,"$103,835 ",2.70%,5,7.80%,"9,768",46,"19,407","13,173",39.495327,-105.05897,Homes,117
"Buildable plan: 5052 Meadowview, Trails Edge at Solstice,","$630,990 ","3,691",4,4,https://photos.zillowstatic.com/cc_ft_960/ISj366tv4f8qfg1000000000.jpg,Littleton,CO,80125,"10,531",38,"$103,835 ",2.70%,5,7.80%,"9,768",46,"19,407","13,173",39.495327,-105.05897,Homes,118
"Buildable plan: Acadia II, Sterling Ranch : The Icon Collection,","$732,900 ","2,872",2,3,https://photos.zillowstatic.com/cc_ft_960/ISbd450ytx72641000000000.jpg,Littleton,CO,80125,"10,531",38,"$103,835 ",2.70%,5,7.80%,"9,768",46,"19,407","13,173",39.495327,-105.05897,Homes,119
"Buildable plan: The Chesapeake - Shenandoah Collection, Sterling Ranch,","$627,900 ","2,392",3,3,https://photos.zillowstatic.com/cc_ft_960/ISmigzrt3g5s2i0000000000.jpg,Littleton,CO,80125,"10,531",38,"$103,835 ",2.70%,5,7.80%,"9,768",46,"19,407","13,173",39.495327,-105.05897,Homes,120
"Buildable plan: 3653 Serenity, Harmony at Solstice,","$501,990 ","2,460",3,3,https://photos.zillowstatic.com/cc_ft_960/ISzfaut8dvokfg1000000000.jpg,Littleton,CO,80125,"10,531",38,"$103,835 ",2.70%,5,7.80%,"9,768",46,"19,407","13,173",39.495327,-105.05897,Homes,121
"Buildable plan: Silverleaf, Sterling Ranch : The Grand Collection,","$672,900 ","3,031",4,3,https://photos.zillowstatic.com/cc_ft_960/ISv0o7w2u7lvb81000000000.jpg,Littleton,CO,80125,"10,531",38,"$103,835 ",2.70%,5,7.80%,"9,768",46,"19,407","13,173",39.495327,-105.05897,Homes,122
"9107 Fraser River St,","$525,182 ","1,580",3,2,https://photos.zillowstatic.com/cc_ft_768/ISzfqu0jr1biu61000000000.webp,Littleton,CO,80125,"10,531",38,"$103,835 ",2.70%,5,7.80%,"9,768",46,"19,407","13,173",39.494315,-105.034721,Homes,123
"9084 Fraser River St,","$611,381 ","2,496",4,4,https://photos.zillowstatic.com/p_e/ISjrwu0rfp0jlo0000000000.jpg,Littleton,CO,80125,"10,531",38,"$103,835 ",2.70%,5,7.80%,"9,768",46,"19,407","13,173",39.493972,-105.03438,Homes,124
"Buildable plan: Jade, Sterling Ranch : The Elements Collection,","$518,900 ","2,302",4,3,https://photos.zillowstatic.com/cc_ft_960/IS3r94zkmxt8ex0000000000.jpg,Littleton,CO,80125,"10,531",38,"$103,835 ",2.70%,5,7.80%,"9,768",46,"19,407","13,173",39.495327,-105.05897,Homes,125
"Buildable plan: Silverleaf, Sterling Ranch : The Grand Collection I,","$672,900 ","3,031",4,3,https://photos.zillowstatic.com/cc_ft_960/ISf8ftjue2do541000000000.jpg,Littleton,CO,80125,"10,531",38,"$103,835 ",2.70%,5,7.80%,"9,768",46,"19,407","13,173",39.495327,-105.05897,Homes,126
"8727 Hunters Hill Ln,","$1,385,000 ","6,049",7,7,https://photos.zillowstatic.com/p_e/ISzvqdgt1quc8o1000000000.jpg,Littleton,CO,80125,"10,531",38,"$103,835 ",2.70%,5,7.80%,"9,768",46,"19,407","13,173",39.488308,-105.081339,Homes,127
"Buildable plan: Cumberland, Ascent Village at Sterling Ranch,","$471,950 ","1,960",3,3,https://photos.zillowstatic.com/cc_ft_960/ISzzta31wdtsiv1000000000.jpg,Littleton,CO,80125,"10,531",38,"$103,835 ",2.70%,5,7.80%,"9,768",46,"19,407","13,173",39.495327,-105.05897,Homes,128
"Buildable plan: 5054 Shadowbrook, Trails Edge at Solstice,","$651,990 ","4,092",5,6,https://photos.zillowstatic.com/cc_ft_960/ISbx3uap070tfg1000000000.jpg,Littleton,CO,80125,"10,531",38,"$103,835 ",2.70%,5,7.80%,"9,768",46,"19,407","13,173",39.495327,-105.05897,Homes,129
"Buildable plan: Residence 2805, Amberly at Sterling Ranch,","$470,900 ","2,156",3,3,https://photos.zillowstatic.com/cc_ft_960/ISj758p2z0hzz80000000000.jpg,Littleton,CO,80125,"10,531",38,"$103,835 ",2.70%,5,7.80%,"9,768",46,"19,407","13,173",39.495327,-105.05897,Homes,130
"Buildable plan: The Granby Sterling 35s, Sterling Ranch Ascent Village,","$515,990 ","2,496",4,4,https://photos.zillowstatic.com/cc_ft_960/ISnio5y87snujh1000000000.jpg,Littleton,CO,80125,"10,531",38,"$103,835 ",2.70%,5,7.80%,"9,768",46,"19,407","13,173",39.495327,-105.05897,Homes,131
"7956 Williams Fork Cir,","$586,458 ","2,847",4,4,https://photos.zillowstatic.com/p_e/ISrx2mpz6jyq5o0000000000.jpg,Littleton,CO,80125,"10,531",38,"$103,835 ",2.70%,5,7.80%,"9,768",46,"19,407","13,173",39.49277,-105.035444,Homes,132
"Buildable plan: 3654 Melody, Harmony at Solstice,","$511,990 ","2,598",4,4,https://photos.zillowstatic.com/cc_ft_960/ISnygucspjdcfg1000000000.jpg,Littleton,CO,80125,"10,531",38,"$103,835 ",2.70%,5,7.80%,"9,768",46,"19,407","13,173",39.495327,-105.05897,Homes,133
"Buildable plan: Preston, Sterling Ranch : The Grand Collection I,","$637,900 ","2,258",4,3,https://ssl.cdn-redfin.com/photo/113/mbpaddedwide/849/genMid.Plan-141400849_0.jpg,Littleton,CO,80125,"10,531",38,"$103,835 ",2.70%,5,7.80%,"9,768",46,"19,407","13,173",39.495327,-105.05897,Homes,134
"Buildable plan: Chelton, Sterling Ranch : The Monarch Collection,","$618,900 ","2,724",4,3,https://photos.zillowstatic.com/cc_ft_960/ISznctoo6zn2l41000000000.jpg,Littleton,CO,80125,"10,531",38,"$103,835 ",2.70%,5,7.80%,"9,768",46,"19,407","13,173",39.495327,-105.05897,Homes,135
"Buildable plan: The Frisco Sterling 35, Sterling Ranch Ascent Village,","$492,990 ","1,969",3,3,https://photos.zillowstatic.com/cc_ft_960/ISvoqhgfb0wrjh1000000000.jpg,Littleton,CO,80125,"10,531",38,"$103,835 ",2.70%,5,7.80%,"9,768",46,"19,407","13,173",39.495327,-105.05897,Homes,136
"Buildable plan: Medway, Ascent Village at Sterling Ranch,","$466,950 ","1,830",3,3,https://photos.zillowstatic.com/cc_ft_960/ISb1f1ntr76tuv1000000000.jpg,Littleton,CO,80125,"10,531",38,"$103,835 ",2.70%,5,7.80%,"9,768",46,"19,407","13,173",39.495327,-105.05897,Homes,137
"9374 Bear River St,","$675,000 ","5,342",3,3,https://ssl.cdn-redfin.com/photo/94/mbpaddedwide/374/genMid.9015374_3.jpg,Littleton,CO,80125,"10,531",38,"$103,835 ",2.70%,5,7.80%,"9,768",46,"19,407","13,173",39.498727,-105.041506,Homes,138
"Buildable plan: Peyton, Sterling Ranch : The Grand Collection,","$709,900 ","3,707",4,4,https://photos.zillowstatic.com/cc_ft_960/IS37qje9yftsb81000000000.jpg,Littleton,CO,80125,"10,531",38,"$103,835 ",2.70%,5,7.80%,"9,768",46,"19,407","13,173",39.495327,-105.05897,Homes,139
"Buildable plan: The Saybrook - Shenandoah Collection, Sterling Ranch,","$662,900 ","2,726",3,3,https://photos.zillowstatic.com/cc_ft_960/ISir8su51b67mg0000000000.jpg,Littleton,CO,80125,"10,531",38,"$103,835 ",2.70%,5,7.80%,"9,768",46,"19,407","13,173",39.495327,-105.05897,Homes,140
"Buildable plan: 4051 Skywalk, Stargaze at Solstice,","$531,490 ","2,230",2,3,https://photos.zillowstatic.com/cc_ft_960/ISf8vh9zja34gg1000000000.jpg,Littleton,CO,80125,"10,531",38,"$103,835 ",2.70%,5,7.80%,"9,768",46,"19,407","13,173",39.495327,-105.05897,Homes,141
"Buildable plan: Bandelier II, Sterling Ranch : The Legends Collection,","$698,900 ","2,540",3,3,https://photos.zillowstatic.com/cc_ft_960/ISniw3ix87k6h20000000000.jpg,Littleton,CO,80125,"10,531",38,"$103,835 ",2.70%,5,7.80%,"9,768",46,"19,407","13,173",39.495327,-105.05897,Homes,142
"Buildable plan: 3651 Destiny, Harmony at Solstice,","$483,990 ","2,026",3,3,https://photos.zillowstatic.com/cc_ft_960/ISv4j6vytrl9fg1000000000.jpg,Littleton,CO,80125,"10,531",38,"$103,835 ",2.70%,5,7.80%,"9,768",46,"19,407","13,173",39.495327,-105.05897,Homes,143
"Buildable plan: Isla, Sterling Ranch : The Elements Collection,","$496,900 ","2,103",3,3,https://photos.zillowstatic.com/cc_ft_960/ISvk7sgeiplbex0000000000.jpg,Littleton,CO,80125,"10,531",38,"$103,835 ",2.70%,5,7.80%,"9,768",46,"19,407","13,173",39.495327,-105.05897,Homes,144
"8138 Piney River Ave,","$1,300,000 ","4,145",5,5,https://photos.zillowstatic.com/p_e/IS72t5rsf2v6gg1000000000.jpg,Littleton,CO,80125,"10,531",38,"$103,835 ",2.70%,5,7.80%,"9,768",46,"19,407","13,173",39.506144,-105.037994,Homes,145
"Buildable plan: Westfield, Ascent Village at Sterling Ranch,","$491,950 ","2,250",3,3,https://photos.zillowstatic.com/cc_ft_960/ISbdwuma8vh43w1000000000.jpg,Littleton,CO,80125,"10,531",38,"$103,835 ",2.70%,5,7.80%,"9,768",46,"19,407","13,173",39.495327,-105.05897,Homes,146
"Buildable plan: Peyton, Sterling Ranch : The Grand Collection I,","$709,900 ","3,585",4,4,https://photos.zillowstatic.com/cc_ft_960/ISbxn5lkvy9d541000000000.jpg,Littleton,CO,80125,"10,531",38,"$103,835 ",2.70%,5,7.80%,"9,768",46,"19,407","13,173",39.495327,-105.05897,Homes,147
"Buildable plan: Sequoia II, Sterling Ranch : The Icon Collection,","$772,900 ","3,251",3,4,https://photos.zillowstatic.com/cc_ft_960/IS7idwlvi9d09x0000000000.jpg,Littleton,CO,80125,"10,531",38,"$103,835 ",2.70%,5,7.80%,"9,768",46,"19,407","13,173",39.495327,-105.05897,Homes,148
"Buildable plan: Everglade II, Sterling Ranch : The Legends Collection,","$716,900 ","2,770",3,4,https://ssl.cdn-redfin.com/photo/113/mbpaddedwide/849/genMid.Plan-141400849_0.jpg,Littleton,CO,80125,"10,531",38,"$103,835 ",2.70%,5,7.80%,"9,768",46,"19,407","13,173",39.495327,-105.05897,Homes,149
"Buildable plan: 4052 Twilight, Stargaze at Solstice,","$552,490 ","2,914",3,3,https://photos.zillowstatic.com/cc_ft_960/ISzvqt8mbum9gg1000000000.jpg,Littleton,CO,80125,"10,531",38,"$103,835 ",2.70%,5,7.80%,"9,768",46,"19,407","13,173",39.495327,-105.05897,Homes,150
"Buildable plan: Kingsley, Sterling Ranch : The Monarch Collection,","$575,900 ","2,166",3,3,https://photos.zillowstatic.com/cc_ft_960/ISb1nfvv0o2kof1000000000.jpg,Littleton,CO,80125,"10,531",38,"$103,835 ",2.70%,5,7.80%,"9,768",46,"19,407","13,173",39.495327,-105.05897,Homes,151
"Buildable plan: 5053 Tallgrass, Trails Edge at Solstice,","$640,990 ","3,808",4,4,https://photos.zillowstatic.com/cc_ft_960/ISbts6ylhnkka00000000000.jpg,Littleton,CO,80125,"10,531",38,"$103,835 ",2.70%,5,7.80%,"9,768",46,"19,407","13,173",39.495327,-105.05897,Homes,152
"Buildable plan: The Arlington - Shenandoah Collection, Sterling Ranch,","$666,900 ","2,442",3,3,https://photos.zillowstatic.com/cc_ft_960/ISyvugxv27is280000000000.jpg,Littleton,CO,80125,"10,531",38,"$103,835 ",2.70%,5,7.80%,"9,768",46,"19,407","13,173",39.495327,-105.05897,Homes,153
"Buildable plan: Cabrillo II, Sterling Ranch : The Legends Collection,","$713,900 ","2,837",3,3,https://photos.zillowstatic.com/cc_ft_960/ISbdogqpsmo8151000000000.jpg,Littleton,CO,80125,"10,531",38,"$103,835 ",2.70%,5,7.80%,"9,768",46,"19,407","13,173",39.495327,-105.05897,Homes,154
"Buildable plan: Residence 2801, Amberly at Sterling Ranch,","$446,900 ","1,498",2,2,https://photos.zillowstatic.com/cc_ft_960/ISzj9wpf7hxtz80000000000.jpg,Littleton,CO,80125,"10,531",38,"$103,835 ",2.70%,5,7.80%,"9,768",46,"19,407","13,173",39.495327,-105.05897,Homes,155
"Buildable plan: Preston, Sterling Ranch : The Grand Collection,","$637,900 ","2,258",4,3,https://ssl.cdn-redfin.com/photo/113/mbpaddedwide/849/genMid.Plan-141400849_0.jpg,Littleton,CO,80125,"10,531",38,"$103,835 ",2.70%,5,7.80%,"9,768",46,"19,407","13,173",39.495327,-105.05897,Homes,156
"Buildable plan: The Asheville - Shenandoah Collection, Sterling Ranch,","$678,900 ","2,784",3,3,https://photos.zillowstatic.com/cc_ft_960/ISesi5jvco0y180000000000.jpg,Littleton,CO,80125,"10,531",38,"$103,835 ",2.70%,5,7.80%,"9,768",46,"19,407","13,173",39.495327,-105.05897,Homes,157
"9903 Eagle River St,","$735,900 ","3,004",4,4,https://ssl.cdn-redfin.com/photo/94/mbpaddedwide/848/genMid.2863848_0.jpg,Littleton,CO,80125,"10,531",38,"$103,835 ",2.70%,5,7.80%,"9,768",46,"19,407","13,173",39.506122,-105.036818,Homes,158
"Buildable plan: 4055 Open Sky, Stargaze at Solstice,","$610,490 ","3,550",5,5,https://photos.zillowstatic.com/cc_ft_960/IS72t5rsf2v6gg1000000000.jpg,Littleton,CO,80125,"10,531",38,"$103,835 ",2.70%,5,7.80%,"9,768",46,"19,407","13,173",39.495327,-105.05897,Homes,159
"Buildable plan: Somerton, Sterling Ranch : The Grand Collection,","$662,900 ","2,528",4,3,https://photos.zillowstatic.com/cc_ft_960/ISf8resw6audo41000000000.jpg,Littleton,CO,80125,"10,531",38,"$103,835 ",2.70%,5,7.80%,"9,768",46,"19,407","13,173",39.495327,-105.05897,Homes,160
"9287 Rangeview Ln,","$1,175,000 ","6,525",5,5,https://photos.zillowstatic.com/p_e/ISjjmxxvj3ni8e1000000000.jpg,Littleton,CO,80125,"10,531",38,"$103,835 ",2.70%,5,7.80%,"9,768",46,"19,407","13,173",39.509533,-105.059634,Homes,161
"Buildable plan: 4053 Night Song, Stargaze at Solstice,","$571,490 ","3,122",3,3,https://photos.zillowstatic.com/cc_ft_960/ISrpohqf7mecgg1000000000.jpg,Littleton,CO,80125,"10,531",38,"$103,835 ",2.70%,5,7.80%,"9,768",46,"19,407","13,173",39.495327,-105.05897,Homes,162
"9905 Geneva Creek Ln,","$472,000 ","1,937",3,3,https://ssl.cdn-redfin.com/photo/94/mbpaddedwide/010/genMid.7334010_1.jpg,Littleton,CO,80125,"10,531",38,"$103,835 ",2.70%,5,7.80%,"9,768",46,"19,407","13,173",39.506201,-105.039123,Homes,163
"8158 Superior Cir,","$800,000 ","6,352",6,6,https://ssl.cdn-redfin.com/photo/94/mbpaddedwide/048/genMid.2946048_1.jpg,Littleton,CO,80125,"10,531",38,"$103,835 ",2.70%,5,7.80%,"9,768",46,"19,407","13,173",39.501255,-105.038873,Homes,164
"Buildable plan: Prescott, Sterling Ranch : The Grand Collection I,","$707,900 ","3,640",4,4,https://photos.zillowstatic.com/cc_ft_960/ISneh521jall541000000000.jpg,Littleton,CO,80125,"10,531",38,"$103,835 ",2.70%,5,7.80%,"9,768",46,"19,407","13,173",39.495327,-105.05897,Homes,165
"Buildable plan: The Chestertown - Shenandoah Collection, Sterling Ranch,","$674,900 ","2,906",4,4,https://photos.zillowstatic.com/cc_ft_960/ISuoiba08odp2i0000000000.jpg,Littleton,CO,80125,"10,531",38,"$103,835 ",2.70%,5,7.80%,"9,768",46,"19,407","13,173",39.495327,-105.05897,Homes,166
"9114 Fraser River St,","$718,458 ","3,206",4,4,https://ssl.cdn-redfin.com/photo/94/mbpaddedwide/074/genMid.6452074_0.jpg,Littleton,CO,80125,"10,531",38,"$103,835 ",2.70%,5,7.80%,"9,768",46,"19,407","13,173",39.494217,-105.034185,Homes,167
"Ivy, Sterling Ranch : The Elements Collection,","$482,900 ","2,009",3,3,https://photos.zillowstatic.com/cc_ft_960/ISf8f94hqrhf111000000000.jpg,Littleton,CO,80125,"10,531",38,"$103,835 ",2.70%,5,7.80%,"9,768",46,"19,407","13,173",39.495327,-105.05897,Homes,169
"Buildable plan: Clarion, Ascent Village at Sterling Ranch,","$456,950 ","1,580",3,2,https://photos.zillowstatic.com/cc_ft_960/ISrpke9dul5mo41000000000.jpg,Littleton,CO,80125,"10,531",38,"$103,835 ",2.70%,5,7.80%,"9,768",46,"19,407","13,173",39.495327,-105.05897,Homes,171
"Buildable plan: 4054 Morningside, Stargaze at Solstice,","$581,490 ","3,135",4,4,https://photos.zillowstatic.com/cc_ft_960/IS7il63enqci3w1000000000.jpg,Littleton,CO,80125,"10,531",38,"$103,835 ",2.70%,5,7.80%,"9,768",46,"19,407","13,173",39.495327,-105.05897,Homes,172
"Buildable plan: Crestone, Sterling Ranch : The Grand Collection I,","$674,900 ","3,058",4,3,https://photos.zillowstatic.com/cc_ft_960/ISnextr5oib1gg1000000000.jpg,Littleton,CO,80125,"10,531",38,"$103,835 ",2.70%,5,7.80%,"9,768",46,"19,407","13,173",39.495327,-105.05897,Homes,173
"7966 Williams Fork Cir,","$551,210 ","2,284",3,3,https://photos.zillowstatic.com/p_e/ISrx2mpz6jyq5o0000000000.jpg,Littleton,CO,80125,"10,531",38,"$103,835 ",2.70%,5,7.80%,"9,768",46,"19,407","13,173",39.492832,-105.035629,Homes,174
"Buildable plan: 5051 Waterton, Trails Edge at Solstice,","$626,990 ","3,538",3,3,https://photos.zillowstatic.com/cc_ft_960/IS3r1isiwyrvfg1000000000.jpg,Littleton,CO,80125,"10,531",38,"$103,835 ",2.70%,5,7.80%,"9,768",46,"19,407","13,173",39.495327,-105.05897,Homes,175
"Buildable plan: Prescott, Sterling Ranch : The Grand Collection,","$707,900 ","3,640",4,4,https://photos.zillowstatic.com/cc_ft_960/ISnulvdwpzcyb81000000000.jpg,Littleton,CO,80125,"10,531",38,"$103,835 ",2.70%,5,7.80%,"9,768",46,"19,407","13,173",39.495327,-105.05897,Homes,176
"Buildable plan: Mulberry, Ascent Village at Sterling Ranch,","$511,950 ","2,660",4,3,https://photos.zillowstatic.com/cc_ft_960/IS37ui444n973w1000000000.jpg,Littleton,CO,80125,"10,531",38,"$103,835 ",2.70%,5,7.80%,"9,768",46,"19,407","13,173",39.495327,-105.05897,Homes,177
"Buildable plan: Ember, Sterling Ranch : The Elements Collection,","$493,900 ","2,065",3,3,https://photos.zillowstatic.com/cc_ft_960/ISzn0cb125d6tf1000000000.jpg,Littleton,CO,80125,"10,531",38,"$103,835 ",2.70%,5,7.80%,"9,768",46,"19,407","13,173",39.495327,-105.05897,Homes,178
"Buildable plan: Brookside, Sterling Ranch : The Monarch Collection,","$633,900 ","2,951",5,5,https://photos.zillowstatic.com/cc_ft_960/ISjrw23yc22n081000000000.jpg,Littleton,CO,80125,"10,531",38,"$103,835 ",2.70%,5,7.80%,"9,768",46,"19,407","13,173",39.495327,-105.05897,Homes,179
"Buildable plan: Somerton, Sterling Ranch : The Grand Collection I,","$662,900 ","2,528",4,3,https://photos.zillowstatic.com/cc_ft_960/ISvkjhk7niti541000000000.jpg,Littleton,CO,80125,"10,531",38,"$103,835 ",2.70%,5,7.80%,"9,768",46,"19,407","13,173",39.495327,-105.05897,Homes,180
"9930 Eagle River St,","$699,900 ","4,124",4,3,https://photos.zillowstatic.com/p_e/ISbly5j71dak4q1000000000.jpg,Littleton,CO,80125,"10,531",38,"$103,835 ",2.70%,5,7.80%,"9,768",46,"19,407","13,173",39.506191,-105.036118,Homes,181
"Buildable plan: Abbot, Sterling Ranch : The Monarch Collection,","$538,900 ","1,857",3,2,https://photos.zillowstatic.com/cc_ft_960/ISn6bjqhwqumb20000000000.jpg,Littleton,CO,80125,"10,531",38,"$103,835 ",2.70%,5,7.80%,"9,768",46,"19,407","13,173",39.495327,-105.05897,Homes,182
"9944 Whitetail Ln,","$2,999,999 ","9,501",5,7,https://photos.zillowstatic.com/p_e/ISrdbb7e1a2yyh0000000000.jpg,Littleton,CO,80127,"46,774",42,"$116,136 ",6.60%,50,0.93%,"11,862",46,"17,763","14,729",39.535143,-105.136459,Homes,183
"9959 Whistling Elk Dr,","$3,200,000 ","7,053",4,5,https://ssl.cdn-redfin.com/photo/94/mbpaddedwide/462/genMid.5622462_1.jpg,Littleton,CO,80127,"46,774",42,"$116,136 ",6.60%,50,0.93%,"11,862",46,"17,763","14,729",39.534032,-105.133451,Homes,184
"7452 S Utica St,","$974,999 ","7,326",5,5,https://ssl.cdn-redfin.com/photo/94/mbpaddedwide/902/genMid.6007902_0.jpg,Littleton,CO,80128,"35,835",42,"$100,542 ",5.80%,38,0.61%,"8,440",46,"14,119","11,296",39.581381,-105.048127,Homes,185
"7100 S Platte Canyon Rd,","$4,685,000 ","21,903",8,13,https://photos.zillowstatic.com/p_e/ISr51irjgc1g7j0000000000.jpg,Littleton,CO,80128,"35,835",42,"$100,542 ",5.80%,38,0.61%,"8,440",46,"14,119","11,296",39.58758,-105.047176,Homes,186
"7664 S Platteview Dr,","$910,000 ","4,778",5,4,https://photos.zillowstatic.com/p_e/ISzzh5z4k1lyvi1000000000.jpg,Littleton,CO,80128,"35,835",42,"$100,542 ",5.80%,38,0.61%,"8,440",46,"14,119","11,296",39.577814,-105.045531,Homes,187
"7145 S Polo Ridge Dr,","$2,200,000 ","7,330",5,8,https://photos.zillowstatic.com/p_e/IS33f4oc9khint1000000000.jpg,Littleton,CO,80128,"35,835",42,"$100,542 ",5.80%,38,0.61%,"8,440",46,"14,119","11,296",39.585666,-105.047492,Homes,188
"7551 Polo Ridge Dr,","$1,890,000 ","6,821",5,5,https://photos.zillowstatic.com/p_e/ISb95f9zu7i6150000000000.jpg,Littleton,CO,80128,"35,835",42,"$100,542 ",5.80%,38,0.61%,"8,440",46,"14,119","11,296",39.580009,-105.04207,Homes,189
"4431 W Caspian Cir,","$4,500,000 ","12,478",6,9,https://photos.zillowstatic.com/p_e/ISb1b6wok1sako0000000000.jpg,Littleton,CO,80128,"35,835",42,"$100,542 ",5.80%,38,0.61%,"8,440",46,"14,119","11,296",39.585911,-105.044778,Homes,190
"6990 S Polo Ridge Dr,","$3,350,000 ","11,731",5,8,https://photos.zillowstatic.com/p_e/IS7emw48excsuk1000000000.jpg,Littleton,CO,80128,"35,835",42,"$100,542 ",5.80%,38,0.61%,"8,440",46,"14,119","11,296",39.587657,-105.044897,Homes,191
"1059 Lamplighter Rd,","$594,500 ","3,419",4,6,https://photos.zillowstatic.com/cc_ft_960/ISrxmdo4mje5ce0000000000.jpg,Niskayuna,NY,12309,"29,057",46,"$105,144 ",10.40%,78,-0.17%,"5,636",37,"12,562","9,299",42.821933,-73.875086,Homes,192
"2500 Troy Schenectady Rd,","$289,900 ","2,230",3,4,https://photos.zillowstatic.com/cc_ft_960/ISzf6nxfe50ofb1000000000.jpg,Niskayuna,NY,12309,"29,057",46,"$105,144 ",10.40%,78,-0.17%,"5,636",37,"12,562","9,299",42.784644,-73.862769,Homes,193
"2333 Barcelona Rd,","$178,800 ","1,488",3,1,https://photos.zillowstatic.com/cc_ft_960/ISjrwatnwzzr8k1000000000.jpg,Niskayuna,NY,12309,"29,057",46,"$105,144 ",10.40%,78,-0.17%,"5,636",37,"12,562","9,299",42.811819,-73.894267,Homes,194
"1414 Regent St,","$239,900 ","1,646",3,2,https://photos.zillowstatic.com/cc_ft_960/ISv4vf67vey35v0000000000.jpg,Niskayuna,NY,12309,"29,057",46,"$105,144 ",10.40%,78,-0.17%,"5,636",37,"12,562","9,299",42.813985,-73.897627,Homes,195
"2201 Rosendale Rd,","$485,000 ","3,732",6,6,https://photos.zillowstatic.com/cc_ft_960/ISvwkmi6s8z87a1000000000.jpg,Niskayuna,NY,12309,"29,057",46,"$105,144 ",10.40%,78,-0.17%,"5,636",37,"12,562","9,299",42.798204,-73.879869,Homes,196
"853 Barton Pl,","$239,900 ","1,350",3,2,https://ssl.cdn-redfin.com/photo/175/mbpaddedwide/311/genMid.202031311_0.jpg,Niskayuna,NY,12309,"29,057",46,"$105,144 ",10.40%,78,-0.17%,"5,636",37,"12,562","9,299",42.778327,-73.84819,Homes,197
"2223 Barcelona Rd,","$199,000 ","1,509",3,2,https://photos.zillowstatic.com/cc_ft_960/ISbdkd5wvr648d0000000000.jpg,Niskayuna,NY,12309,"29,057",46,"$105,144 ",10.40%,78,-0.17%,"5,636",37,"12,562","9,299",42.811757,-73.896171,Homes,198
"1019 Hickory Rd,","$321,000 ","3,000",5,4,https://photos.zillowstatic.com/cc_ft_960/ISrtre5xzcsiej1000000000.jpg,Niskayuna,NY,12309,"29,057",46,"$105,144 ",10.40%,78,-0.17%,"5,636",37,"12,562","9,299",42.793895,-73.878018,Homes,199
"2333 Barcelona Rd,","$178,800 ","1,488",3,1,https://photos.zillowstatic.com/cc_ft_960/ISjrwatnwzzr8k1000000000.jpg,Niskayuna,NY,12309,"29,057",46,"$105,144 ",10.40%,78,-0.17%,"5,636",37,"12,562","9,299",42.811819,-73.894267,Homes,200
"934 Mohegan Rd,","$159,000 ","1,015",3,1,https://photos.zillowstatic.com/cc_ft_960/ISzb7tjo60q27c1000000000.jpg,Niskayuna,NY,12309,"29,057",46,"$105,144 ",10.40%,78,-0.17%,"5,636",37,"12,562","9,299",42.79114,-73.874725,Homes,201
"1457 Baker Ave,","$247,000 ","1,860",5,2,https://ssl.cdn-redfin.com/photo/175/mbpaddedwide/712/genMid.202026712_B.jpg,Niskayuna,NY,12309,"29,057",46,"$105,144 ",10.40%,78,-0.17%,"5,636",37,"12,562","9,299",42.815701,-73.902583,Homes,202
"2226 Budd Ter,","$314,900 ","2,507",4,3,https://photos.zillowstatic.com/cc_ft_960/ISbhvk9yruilhg0000000000.jpg,Niskayuna,NY,12309,"29,057",46,"$105,144 ",10.40%,78,-0.17%,"5,636",37,"12,562","9,299",42.802902,-73.873928,Homes,203
"895 Stark Ave,","$209,000 ","1,448",3,2,https://photos.zillowstatic.com/cc_ft_960/ISnet24apqml960000000000.jpg,Niskayuna,NY,12309,"29,057",46,"$105,144 ",10.40%,78,-0.17%,"5,636",37,"12,562","9,299",42.797998,-73.894843,Homes,204
"11 Cheshire Pl,","$239,900 ","1,770",4,3,https://photos.zillowstatic.com/cc_ft_960/ISfw9hlfuwqjiu0000000000.jpg,Niskayuna,NY,12309,"29,057",46,"$105,144 ",10.40%,78,-0.17%,"5,636",37,"12,562","9,299",42.779032,-73.872048,Homes,205
"2075 Baker Ave,","$242,900 ","2,019",3,2,https://photos.zillowstatic.com/cc_ft_960/ISrd700eeew6gd1000000000.jpg,Niskayuna,NY,12309,"29,057",46,"$105,144 ",10.40%,78,-0.17%,"5,636",37,"12,562","9,299",42.822282,-73.893191,Homes,206
"872 Saint Davids Ln,","$199,900 ","1,714",3,2,https://photos.zillowstatic.com/cc_ft_960/ISj3mu63giz9pq1000000000.jpg,Niskayuna,NY,12309,"29,057",46,"$105,144 ",10.40%,78,-0.17%,"5,636",37,"12,562","9,299",42.788631,-73.880378,Homes,207
"1460 Regent St,","$199,900 ","1,644",3,2,https://photos.zillowstatic.com/cc_ft_960/IS72pao6jf15d10000000000.jpg,Niskayuna,NY,12309,"29,057",46,"$105,144 ",10.40%,78,-0.17%,"5,636",37,"12,562","9,299",42.814864,-73.897346,Homes,209
"2884 Troy Schenectady Rd,","$239,000 ","1,771",4,2,https://photos.zillowstatic.com/cc_ft_960/ISjbgbil92vo9u1000000000.jpg,Niskayuna,NY,12309,"29,057",46,"$105,144 ",10.40%,78,-0.17%,"5,636",37,"12,562","9,299",42.778055,-73.841539,Homes,210
"1035 Atateka Rd,","$298,500 ","1,566",3,2,https://photos.zillowstatic.com/cc_ft_960/ISjjm15wjqxk4l0000000000.jpg,Niskayuna,NY,12309,"29,057",46,"$105,144 ",10.40%,78,-0.17%,"5,636",37,"12,562","9,299",42.795387,-73.880834,Homes,211
"62 Lori Dr,","$309,900 ","1,648",3,3,https://photos.zillowstatic.com/cc_ft_960/IS3fk8onheyjlu0000000000.jpg,Niskayuna,NY,12309,"29,057",46,"$105,144 ",10.40%,78,-0.17%,"5,636",37,"12,562","9,299",42.774422,-73.842288,Homes,212
"1110 N Country Club Dr,","$279,000 ","1,710",3,2,https://photos.zillowstatic.com/cc_ft_960/ISv8ehzmsf1dr31000000000.jpg,Niskayuna,NY,12309,"29,057",46,"$105,144 ",10.40%,78,-0.17%,"5,636",37,"12,562","9,299",42.799273,-73.888748,Homes,213
"10 Reilly Way,","$314,900 ","1,776",3,2,https://photos.zillowstatic.com/cc_ft_960/ISzvu8nm2kzzc90000000000.jpg,Niskayuna,NY,12309,"29,057",46,"$105,144 ",10.40%,78,-0.17%,"5,636",37,"12,562","9,299",42.838087,-73.892823,Homes,214
"7 Oaktree Ln,","$318,000 ","1,872",3,3,https://photos.zillowstatic.com/cc_ft_960/ISf8fdz73j3xyt0000000000.jpg,Niskayuna,NY,12309,"29,057",46,"$105,144 ",10.40%,78,-0.17%,"5,636",37,"12,562","9,299",42.771069,-73.836959,Homes,215
"1422 Valencia Rd,","$294,900 ","1,958",3,3,https://photos.zillowstatic.com/cc_ft_960/ISbd8skglntm351000000000.jpg,Niskayuna,NY,12309,"29,057",46,"$105,144 ",10.40%,78,-0.17%,"5,636",37,"12,562","9,299",42.814159,-73.896292,Homes,216
"1530 Myron St,","$174,500 ","1,395",3,2,https://ssl.cdn-redfin.com/photo/175/mbpaddedwide/760/genMid.202019760_2.jpg,Niskayuna,NY,12309,"29,057",46,"$105,144 ",10.40%,78,-0.17%,"5,636",37,"12,562","9,299",42.817621,-73.89773,Homes,217
"1609 Bernice St,","$178,000 ","1,404",3,1,https://maps.googleapis.com/maps/api/streetview?channel=mb-pdp-publicrecord&location=1609+Bernice+St%2C+Schenectady%2C+NY+12303&size=665x441&source=outdoor&client=gme-redfin&signature=TqSFhoazmH-Gj9KkNPAtP81E_us=,Schenectady,NY,12303,"30,439",42,"$68,054 ",11.80%,90,-0.17%,"3,848",37,"13,388","8,604",42.786473,-73.940762,Homes,218
"1065 Roberta Rd,","$160,000 ","1,278",3,1,https://photos.zillowstatic.com/cc_ft_960/IS3r167aumw6ln0000000000.jpg,Schenectady,NY,12303,"30,439",42,"$68,054 ",11.80%,90,-0.17%,"3,848",37,"13,388","8,604",42.775406,-73.93658,Homes,219
"104 Palmer St,","$214,900 ","1,398",4,2,https://photos.zillowstatic.com/cc_ft_960/ISzzl8o1ac2nqc0000000000.jpg,Schenectady,NY,12303,"30,439",42,"$68,054 ",11.80%,90,-0.17%,"3,848",37,"13,388","8,604",42.770864,-73.918023,Homes,220
"1017 Getz Ave,","$185,000 ","2,027",4,2,https://photos.zillowstatic.com/cc_ft_960/IS725n0hisw95y0000000000.jpg,Schenectady,NY,12303,"30,439",42,"$68,054 ",11.80%,90,-0.17%,"3,848",37,"13,388","8,604",42.774389,-73.938437,Homes,221
"31 Christina Dr,","$275,000 ","1,702",4,2,https://photos.zillowstatic.com/cc_ft_960/ISrtn36bh06o7w1000000000.jpg,Schenectady,NY,12303,"30,439",42,"$68,054 ",11.80%,90,-0.17%,"3,848",37,"13,388","8,604",42.74701,-73.948362,Homes,222
"3553 E Lydius St,","$269,777 ","2,275",4,2,https://photos.zillowstatic.com/cc_ft_960/IS76w6pjvjuygl1000000000.jpg,Schenectady,NY,12303,"30,439",42,"$68,054 ",11.80%,90,-0.17%,"3,848",37,"13,388","8,604",42.730543,-73.9017,Homes,223
"513 Acre Dr,","$244,900 ","1,900",3,3,https://photos.zillowstatic.com/cc_ft_960/IS768oyn2ggu4c0000000000.jpg,Schenectady,NY,12303,"30,439",42,"$68,054 ",11.80%,90,-0.17%,"3,848",37,"13,388","8,604",42.719942,-73.923358,Homes,224
"247 Pinewood Dr,","$299,990 ","1,946",3,3,https://ssl.cdn-redfin.com/photo/175/mbpaddedwide/749/genMid.202030749_0.jpg,Schenectady,NY,12303,"30,439",42,"$68,054 ",11.80%,90,-0.17%,"3,848",37,"13,388","8,604",42.722531,-73.945411,Homes,225
"1741 Fiero Ave,","$189,900 ","1,429",3,2,https://photos.zillowstatic.com/cc_ft_960/IS3nikmr44x4ty0000000000.jpg,Schenectady,NY,12303,"30,439",42,"$68,054 ",11.80%,90,-0.17%,"3,848",37,"13,388","8,604",42.782349,-73.947961,Homes,226
"1909 Greenpoint Ave,","$219,000 ","1,866",3,2,https://ssl.cdn-redfin.com/photo/175/mbpaddedwide/393/genMid.202027393_2.jpg,Schenectady,NY,12303,"30,439",42,"$68,054 ",11.80%,90,-0.17%,"3,848",37,"13,388","8,604",42.777923,-73.950055,Homes,227
"6009 Garden View Dr,","$365,000 ","2,351",4,3,https://photos.zillowstatic.com/cc_ft_960/ISjnl35ike140g1000000000.jpg,Schenectady,NY,12303,"30,439",42,"$68,054 ",11.80%,90,-0.17%,"3,848",37,"13,388","8,604",42.724534,-73.938964,Homes,228
"3055 Mcdonald Ave,","$94,900 ",768,3,1,https://photos.zillowstatic.com/cc_ft_960/ISzbz65s707q300000000000.jpg,Schenectady,NY,12304,"21,295",40,"$51,285 ",13.20%,127,-0.24%,"2,218",37,"9,500","4,917",42.771176,-73.912233,Homes,229
"112 Nutwood Ave,","$179,900 ",912,3,1,https://photos.zillowstatic.com/cc_ft_960/ISnioxj83l79j70000000000.jpg,Schenectady,NY,12304,"21,295",40,"$51,285 ",13.20%,127,-0.24%,"2,218",37,"9,500","4,917",42.762815,-73.890418,Homes,230
"312 Kings Rd,","$164,900 ","1,599",3,2,https://photos.zillowstatic.com/cc_ft_960/ISfcm98fwyq1ov0000000000.jpg,Schenectady,NY,12304,"21,295",40,"$51,285 ",13.20%,127,-0.24%,"2,218",37,"9,500","4,917",42.776931,-73.910646,Homes,231
"19 Cromer Ave,","$129,900 ",747,3,2,https://ssl.cdn-redfin.com/photo/175/mbpaddedwide/299/genMid.201511299_0.jpg,Schenectady,NY,12304,"21,295",40,"$51,285 ",13.20%,127,-0.24%,"2,218",37,"9,500","4,917",42.782828,-73.904102,Homes,232
"38 Spruce St,","$119,900 ","1,890",3,1,https://photos.zillowstatic.com/cc_ft_960/ISfwph8yxq9a4b0000000000.jpg,Schenectady,NY,12304,"21,295",40,"$51,285 ",13.20%,127,-0.24%,"2,218",37,"9,500","4,917",42.793092,-73.916188,Homes,233
"302 Division St,","$17,600 ","1,322",3,1,https://photos.zillowstatic.com/cc_ft_960/ISfkgy1tk0g5ir0000000000.jpg,Schenectady,NY,12304,"21,295",40,"$51,285 ",13.20%,127,-0.24%,"2,218",37,"9,500","4,917",42.801162,-73.918914,Homes,235
"312 Kings Rd,","$164,900 ","1,599",3,2,https://photos.zillowstatic.com/cc_ft_960/ISfcm98fwyq1ov0000000000.jpg,Schenectady,NY,12304,"21,295",40,"$51,285 ",13.20%,127,-0.24%,"2,218",37,"9,500","4,917",42.776931,-73.910646,Homes,236
"112 Nutwood Ave,","$179,900 ",912,3,1,https://photos.zillowstatic.com/cc_ft_960/ISnioxj83l79j70000000000.jpg,Schenectady,NY,12304,"21,295",40,"$51,285 ",13.20%,127,-0.24%,"2,218",37,"9,500","4,917",42.762815,-73.890418,Homes,237
"511 Chadwick Rd,","$194,500 ","2,056",4,2,https://photos.zillowstatic.com/cc_ft_960/ISfcyi3bx4inua1000000000.jpg,Schenectady,NY,12304,"21,295",40,"$51,285 ",13.20%,127,-0.24%,"2,218",37,"9,500","4,917",42.768399,-73.907812,Homes,238
"2923 Albany St,","$154,900 ","1,281",3,2,https://photos.zillowstatic.com/cc_ft_960/IS33f0xwfug60q1000000000.jpg,Schenectady,NY,12304,"21,295",40,"$51,285 ",13.20%,127,-0.24%,"2,218",37,"9,500","4,917",42.778579,-73.905146,Homes,239
"46 Shepard Ave,","$170,000 ","1,366",4,1,https://photos.zillowstatic.com/cc_ft_960/ISvsl8h3cytimg0000000000.jpg,Schenectady,NY,12304,"21,295",40,"$51,285 ",13.20%,127,-0.24%,"2,218",37,"9,500","4,917",42.764055,-73.882455,Homes,240
"3 Monroe St,","$52,900 ",830,3,1,https://photos.zillowstatic.com/cc_ft_960/IS7anecxa3dzh30000000000.jpg,Schenectady,NY,12305,"6,266",37,"$30,547 ",13.40%,254,0.29%,696,37,"3,513",382,42.820624,-73.939238,Homes,241
"17 N Ferry St,","$198,000 ","1,654",3,2,https://photos.zillowstatic.com/cc_ft_960/ISvouowz0nuqag0000000000.jpg,Schenectady,NY,12305,"6,266",37,"$30,547 ",13.40%,254,0.29%,696,37,"3,513",382,42.817262,-73.945903,Homes,242
"31 Puritan Dr,","$219,900 ","1,764",3,2,https://photos.zillowstatic.com/cc_ft_960/ISzfysc9lz9ibg1000000000.jpg,Schenectady,NY,12306,"26,351",44,"$68,566 ",12.30%,108,0.10%,"3,549",37,"12,267","7,796",42.77662,-73.963137,Homes,243
"2175 Guilderland Ave,","$10,000 ","1,096",3,2,https://photos.zillowstatic.com/cc_ft_960/ISfseu3tqrwenk0000000000.jpg,Schenectady,NY,12306,"26,351",44,"$68,566 ",12.30%,108,0.10%,"3,549",37,"12,267","7,796",42.793714,-73.965011,Homes,244
"1069 Beverly St,","$84,000 ","1,489",2,1,https://photos.zillowstatic.com/cc_ft_960/ISvs1d77p9sfuv0000000000.jpg,Schenectady,NY,12306,"26,351",44,"$68,566 ",12.30%,108,0.10%,"3,549",37,"12,267","7,796",42.7819,-73.966603,Homes,245
"2191 Giffords Church Rd,","$229,900 ","1,708",3,2,https://photos.zillowstatic.com/cc_ft_960/IS3bptgaa9rvd50000000000.jpg,Schenectady,NY,12306,"26,351",44,"$68,566 ",12.30%,108,0.10%,"3,549",37,"12,267","7,796",42.75125,-74.020262,Homes,246
"341 Perry St,","$129,900 ","1,184",3,1,https://photos.zillowstatic.com/cc_ft_960/ISn67ofplq5ua91000000000.jpg,Schenectady,NY,12306,"26,351",44,"$68,566 ",12.30%,108,0.10%,"3,549",37,"12,267","7,796",42.797629,-73.972348,Homes,247
"598 Duanesburg Rd,","$289,999 ","1,700",4,2,https://photos.zillowstatic.com/cc_ft_960/ISz7gdu71sp37v1000000000.jpg,Schenectady,NY,12306,"26,351",44,"$68,566 ",12.30%,108,0.10%,"3,549",37,"12,267","7,796",42.787967,-74.003787,Homes,248
"227 Phillips Rd,","$369,700 ","2,790",5,4,https://photos.zillowstatic.com/cc_ft_960/ISrldu1z1rwh400000000000.jpg,Schenectady,NY,12306,"26,351",44,"$68,566 ",12.30%,108,0.10%,"3,549",37,"12,267","7,796",42.803865,-74.001999,Homes,249
"54 S Westcott Rd,","$285,000 ","2,240",5,2,https://ssl.cdn-redfin.com/photo/175/mbpaddedwide/623/genMid.202027623_8.jpg,Schenectady,NY,12306,"26,351",44,"$68,566 ",12.30%,108,0.10%,"3,549",37,"12,267","7,796",42.76734,-73.98846,Homes,250
"1705 Campbell Ave,","$129,500 ","1,128",3,1,https://photos.zillowstatic.com/cc_ft_960/ISfgxkfqosffyf0000000000.jpg,Schenectady,NY,12306,"26,351",44,"$68,566 ",12.30%,108,0.10%,"3,549",37,"12,267","7,796",42.801108,-73.961661,Homes,251
"9 Glen Ct,","$299,900 ","1,800",4,2,https://ssl.cdn-redfin.com/photo/175/mbpaddedwide/634/genMid.202027634_1.jpg,Schenectady,NY,12306,"26,351",44,"$68,566 ",12.30%,108,0.10%,"3,549",37,"12,267","7,796",42.790188,-74.005431,Homes,252
"51 Merritt Dr,","$299,900 ","2,800",4,3,https://photos.zillowstatic.com/cc_ft_960/ISrxqwd0kb90ep1000000000.jpg,Schenectady,NY,12306,"26,351",44,"$68,566 ",12.30%,108,0.10%,"3,549",37,"12,267","7,796",42.773135,-73.965661,Homes,253
"1848 Jerome Ave,","$129,900 ","1,555",4,2,https://photos.zillowstatic.com/cc_ft_960/ISjfv9qny3fu890000000000.jpg,Schenectady,NY,12306,"26,351",44,"$68,566 ",12.30%,108,0.10%,"3,549",37,"12,267","7,796",42.794062,-73.959552,Homes,254
"417 2nd St,","$55,000 ","1,728",3,2,https://photos.zillowstatic.com/cc_ft_960/ISr1y010nvl1ya0000000000.jpg,Schenectady,NY,12306,"26,351",44,"$68,566 ",12.30%,108,0.10%,"3,549",37,"12,267","7,796",42.800514,-73.960977,Homes,255
"828 Draper Ave,","$129,900 ","1,594",4,2,https://photos.zillowstatic.com/cc_ft_960/ISrxe3neioa9rn1000000000.jpg,Schenectady,NY,12306,"26,351",44,"$68,566 ",12.30%,108,0.10%,"3,549",37,"12,267","7,796",42.790043,-73.972055,Homes,256
"3287 Taylor St,","$110,000 ",800,2,1,https://photos.zillowstatic.com/cc_ft_960/ISbxfjemg3pdl60000000000.jpg,Schenectady,NY,12306,"26,351",44,"$68,566 ",12.30%,108,0.10%,"3,549",37,"12,267","7,796",42.789035,-73.989195,Homes,258
"341 Perry St,","$129,900 ","1,184",3,1,https://photos.zillowstatic.com/cc_ft_960/ISn67ofplq5ua91000000000.jpg,Schenectady,NY,12306,"26,351",44,"$68,566 ",12.30%,108,0.10%,"3,549",37,"12,267","7,796",42.797629,-73.972348,Homes,259
"2191 Giffords Church Rd,","$229,900 ","1,708",3,2,https://photos.zillowstatic.com/cc_ft_960/IS3bptgaa9rvd50000000000.jpg,Schenectady,NY,12306,"26,351",44,"$68,566 ",12.30%,108,0.10%,"3,549",37,"12,267","7,796",42.75125,-74.020262,Homes,260
"504 Steeple Way,","$344,900 ","3,000",4,3,https://photos.zillowstatic.com/cc_ft_960/ISf8j0k6bksi741000000000.jpg,Schenectady,NY,12306,"26,351",44,"$68,566 ",12.30%,108,0.10%,"3,549",37,"12,267","7,796",42.758109,-73.965384,Homes,261
"102 Lake Dr,","$199,000 ","1,000",3,1,https://photos.zillowstatic.com/cc_ft_960/IS725jdwz0xeup0000000000.jpg,Schenectady,NY,12306,"26,351",44,"$68,566 ",12.30%,108,0.10%,"3,549",37,"12,267","7,796",42.760059,-73.961947,Homes,262
"3017 Edgewood Ave,","$129,900 ","1,869",3,2,https://photos.zillowstatic.com/cc_ft_960/ISj3adlxj6xkml1000000000.jpg,Schenectady,NY,12306,"26,351",44,"$68,566 ",12.30%,108,0.10%,"3,549",37,"12,267","7,796",42.79208,-73.977675,Homes,263
"922 Shardon Ct,","$499,000 ","3,100",4,3,https://photos.zillowstatic.com/cc_ft_960/IS76sfpqesls4n0000000000.jpg,Schenectady,NY,12306,"26,351",44,"$68,566 ",12.30%,108,0.10%,"3,549",37,"12,267","7,796",42.769665,-74.013446,Homes,264
"51 Merritt Dr,","$299,900 ","2,800",4,3,https://photos.zillowstatic.com/cc_ft_960/ISrxqwd0kb90ep1000000000.jpg,Schenectady,NY,12306,"26,351",44,"$68,566 ",12.30%,108,0.10%,"3,549",37,"12,267","7,796",42.773135,-73.965661,Homes,265
"2255 Campbell Ave,","$249,000 ","3,500",5,2,https://photos.zillowstatic.com/cc_ft_960/IS7qja32xboyrs0000000000.jpg,Schenectady,NY,12306,"26,351",44,"$68,566 ",12.30%,108,0.10%,"3,549",37,"12,267","7,796",42.800499,-73.970051,Homes,266
"4632 Mariaville Rd,","$350,000 ","2,704",4,2,https://ssl.cdn-redfin.com/photo/175/mbpaddedwide/235/genMid.202029235_0.jpg,Schenectady,NY,12306,"26,351",44,"$68,566 ",12.30%,108,0.10%,"3,549",37,"12,267","7,796",42.821994,-74.065325,Homes,267
"686 Palm Ave,","$139,900 ","1,728",4,1,https://photos.zillowstatic.com/cc_ft_960/ISv0su0h7h9u390000000000.jpg,Schenectady,NY,12306,"26,351",44,"$68,566 ",12.30%,108,0.10%,"3,549",37,"12,267","7,796",42.780235,-73.972802,Homes,268
"196 Old Crawford Rd,","$265,900 ","2,317",4,3,https://photos.zillowstatic.com/cc_ft_960/IS3v04ct49g42g0000000000.jpg,Schenectady,NY,12306,"26,351",44,"$68,566 ",12.30%,108,0.10%,"3,549",37,"12,267","7,796",42.852798,-74.026351,Homes,269
"459 Alexander St,","$124,900 ","1,724",4,2,https://photos.zillowstatic.com/cc_ft_960/IS3n2gc08a2wa31000000000.jpg,Schenectady,NY,12308,"15,764",32,"$52,289 ",13.90%,151,0.02%,"1,838",37,"6,786","2,418",42.832085,-73.922047,Homes,270
"1083 Parkwood Blvd,","$169,900 ","1,754",3,2,https://photos.zillowstatic.com/cc_ft_960/ISv828oa0nha2w0000000000.jpg,Schenectady,NY,12308,"15,764",32,"$52,289 ",13.90%,151,100.02%,"1,838",37,"6,786","2,418",42.812351,-73.91788,Homes,271
"839 Bedford Rd,","$199,500 ","1,988",4,2,https://photos.zillowstatic.com/cc_ft_960/ISjzq36vria8ge0000000000.jpg,Schenectady,NY,12308,"15,764",32,"$52,289 ",13.90%,151,100.02%,"1,838",37,"6,786","2,418",42.809283,-73.920194,Homes,272
"1196 Wendell Ave,","$244,900 ","2,938",5,3,https://photos.zillowstatic.com/cc_ft_960/IS3bpptl84ds7a1000000000.jpg,Schenectady,NY,12308,"15,764",32,"$52,289 ",13.90%,151,100.02%,"1,838",37,"6,786","2,418",42.815829,-73.921582,Homes,273
"714 Hattie St,","$90,000 ","1,442",4,1,https://ssl.cdn-redfin.com/photo/175/mbpaddedwide/385/genMid.201710385_5.jpg,Schenectady,NY,12308,"15,764",32,"$52,289 ",13.90%,151,100.02%,"1,838",37,"6,786","2,418",42.820412,-73.925839,Homes,274
"1610 Avenue B,","$60,000 ","1,356",3,2,https://photos.zillowstatic.com/cc_ft_960/ISn2cxqqwfl1oo1000000000.jpg,Schenectady,NY,12308,"15,764",32,"$52,289 ",13.90%,151,100.02%,"1,838",37,"6,786","2,418",42.821141,-73.922831,Homes,275
"1196 Wendell Ave,","$244,900 ","2,938",5,3,https://photos.zillowstatic.com/cc_ft_960/IS3bpptl84ds7a1000000000.jpg,Schenectady,NY,12308,"15,764",32,"$52,289 ",13.90%,151,100.02%,"1,838",37,"6,786","2,418",42.815829,-73.921582,Homes,277
"505 Bedford Rd,","$109,900 ","2,268",4,2,https://ssl.cdn-redfin.com/photo/175/mbpaddedwide/287/genMid.202025287_7.jpg,Schenectady,NY,12308,"15,764",32,"$52,289 ",13.90%,151,100.02%,"1,838",37,"6,786","2,418",42.806493,-73.922069,Homes,278
"9 Morris Ave,","$199,000 ","2,276",4,3,https://photos.zillowstatic.com/cc_ft_960/IS3zj5xy84rguw0000000000.jpg,Schenectady,NY,12308,"15,764",32,"$52,289 ",13.90%,151,100.02%,"1,838",37,"6,786","2,418",42.810645,-73.923381,Homes,279
"1259 Garner Ave,","$168,000 ","1,514",3,2,https://photos.zillowstatic.com/cc_ft_960/ISjzeit1wyqe851000000000.jpg,Schenectady,NY,12309,"29,057",46,"$105,144 ",10.40%,78,-0.17%,"5,636",37,"12,562","9,299",42.812185,-73.904707,Homes,280
"1279 Garner Ave,","$187,500 ","1,857",3,2,https://photos.zillowstatic.com/cc_ft_960/ISvkjlzl36x9bt1000000000.jpg,Schenectady,NY,12309,"29,057",46,"$105,144 ",10.40%,78,-0.17%,"5,636",37,"12,562","9,299",42.81288,-73.904485,Homes,281
"1160 Mcclellan St,","$149,900 ","1,350",3,2,https://photos.zillowstatic.com/cc_ft_960/ISn2cpkog2gy3g1000000000.jpg,Schenectady,NY,12309,"29,057",46,"$105,144 ",10.40%,78,-0.17%,"5,636",37,"12,562","9,299",42.810811,-73.909363,Homes,282
"3 Michelle Ln,","$239,900 ","1,592",4,2,https://photos.zillowstatic.com/cc_ft_960/ISzvy3e7m0og621000000000.jpg,Schenectady,NY,12309,"29,057",46,"$105,144 ",10.40%,78,-0.17%,"5,636",37,"12,562","9,299",42.763293,-73.852366,Homes,283
"9 Concord Dr,","$314,900 ","1,825",4,2,https://photos.zillowstatic.com/cc_ft_960/ISbdcz0l6aanhi1000000000.jpg,Schenectady,NY,12309,"29,057",46,"$105,144 ",10.40%,78,-0.17%,"5,636",37,"12,562","9,299",42.768201,-73.847219,Homes,284
"2220 Central Pkwy,","$215,000 ","1,936",3,2,https://photos.zillowstatic.com/cc_ft_960/ISfglnlfazkcrn0000000000.jpg,Schenectady,NY,12309,"29,057",46,"$105,144 ",10.40%,78,-0.17%,"5,636",37,"12,562","9,299",42.79999,-73.902122,Homes,285
"193 Main St,","$350,000 ","3,775",7,3,https://ssl.cdn-redfin.com/photo/234/mbpaddedwide/845/genMid.170333845_0.jpg,West Haven,CT,6516,"55,749",39,"$57,150 ",12.80%,91,-0.12%,"5,993",41,"22,801","11,249",41.274827,-72.944418,Homes,286
"13 Myrtle St,","$349,900 ","2,170",5,4,https://photos.zillowstatic.com/cc_ft_960/ISn6j5hjnf6snc1000000000.jpg,West Haven,CT,6516,"55,749",39,"$57,150 ",12.80%,91,-0.12%,"5,993",41,"22,801","11,249",41.287616,-72.949778,Homes,287
"160 Central Ave,","$180,000 ","1,152",2,2,https://ssl.cdn-redfin.com/photo/234/mbpaddedwide/260/genMid.170313260_0.jpg,West Haven,CT,6516,"55,749",39,"$57,150 ",12.80%,91,-0.12%,"5,993",41,"22,801","11,249",41.247855,-72.977521,Homes,288
"23 Peppermill Dr,","$449,900 ","2,499",5,3,https://ssl.cdn-redfin.com/photo/234/mbpaddedwide/662/genMid.170335662_0.jpg,West Haven,CT,6516,"55,749",39,"$57,150 ",12.80%,91,-0.12%,"5,993",41,"22,801","11,249",41.248733,-72.979834,Homes,289
"194 Church St,","$235,500 ","1,332",3,2,https://photos.zillowstatic.com/cc_ft_960/IS768kj9qvlbju0000000000.jpg,West Haven,CT,6516,"55,749",39,"$57,150 ",12.80%,91,-0.12%,"5,993",41,"22,801","11,249",41.268389,-72.955671,Homes,290
"14 Colonial Pl,","$349,900 ","1,568",3,2,https://maps.googleapis.com/maps/api/streetview?channel=mb-pdp-publicrecord&location=14+Colonial+Pl%2C+West+Haven%2C+CT+06516&size=665x441&source=outdoor&client=gme-redfin&signature=7Zxy3DZIGZXPZ7AgTZ7I8an2ThQ=,West Haven,CT,6516,"55,749",39,"$57,150 ",12.80%,91,-0.12%,"5,993",41,"22,801","11,249",41.241633,-72.972343,Homes,291
"100 Yates St,","$299,900 ","1,490",5,3,https://photos.zillowstatic.com/cc_ft_960/IS7e6w5c0j6fta1000000000.jpg,West Haven,CT,6516,"55,749",39,"$57,150 ",12.80%,91,-0.12%,"5,993",41,"22,801","11,249",41.297691,-72.97806,Homes,292
"31 Terrace Ave,","$190,000 ","1,002",2,2,https://photos.zillowstatic.com/cc_ft_960/ISz7sqskgixoch1000000000.jpg,West Haven,CT,6516,"55,749",39,"$57,150 ",12.80%,91,-0.12%,"5,993",41,"22,801","11,249",41.287656,-72.959834,Homes,293
"48 Myrtle Ave,","$195,000 ",900,2,1,https://photos.zillowstatic.com/cc_ft_960/ISjbkmhfex7l6t0000000000.jpg,West Haven,CT,6516,"55,749",39,"$57,150 ",12.80%,91,-0.12%,"5,993",41,"22,801","11,249",41.278401,-72.958151,Homes,294
"82 2nd Ave,","$189,000 ","1,234",2,2,https://photos.zillowstatic.com/cc_ft_960/ISznw0wi306opq0000000000.jpg,West Haven,CT,6516,"55,749",39,"$57,150 ",12.80%,91,-0.12%,"5,993",41,"22,801","11,249",41.265869,-72.933251,Homes,295
"54 Orford St,","$257,000 ","1,408",5,3,https://ssl.cdn-redfin.com/photo/234/mbpaddedwide/100/genMid.170332100_0.jpg,West Haven,CT,6516,"55,749",39,"$57,150 ",12.80%,91,-0.12%,"5,993",41,"22,801","11,249",41.284953,-72.975166,Homes,296
"456 3rd Ave,","$319,999 ","2,026",5,3,https://photos.zillowstatic.com/cc_ft_960/ISvc1y24z5bcy21000000000.jpg,West Haven,CT,6516,"55,749",39,"$57,150 ",12.80%,91,-0.12%,"5,993",41,"22,801","11,249",41.273608,-72.943434,Homes,297
"748 Savin Ave,","$369,000 ","2,645",4,4,https://photos.zillowstatic.com/cc_ft_960/ISnu5jtv40l2gw0000000000.jpg,West Haven,CT,6516,"55,749",39,"$57,150 ",12.80%,91,-0.12%,"5,993",41,"22,801","11,249",41.27234,-72.953125,Homes,298
"108 Eileen Rd,","$239,900 ",929,3,1,https://photos.zillowstatic.com/cc_ft_960/ISf8fl9170ifpd1000000000.jpg,West Haven,CT,6516,"55,749",39,"$57,150 ",12.80%,91,-0.12%,"5,993",41,"22,801","11,249",41.27412,-72.978091,Homes,299
"59 Coleman St,","$255,000 ","1,800",4,3,https://photos.zillowstatic.com/cc_ft_960/ISvoucbr2wr5821000000000.jpg,West Haven,CT,6516,"55,749",39,"$57,150 ",12.80%,91,-0.12%,"5,993",41,"22,801","11,249",41.280417,-72.966868,Homes,300
"3 April St,","$599,900 ","3,792",4,3,https://photos.zillowstatic.com/cc_ft_960/ISrpwns7afay250000000000.jpg,West Haven,CT,6516,"55,749",39,"$57,150 ",12.80%,91,-0.12%,"5,993",41,"22,801","11,249",41.269525,-72.932813,Homes,301
"472 Jones Hill Rd,","$334,900 ","2,184",3,2,https://photos.zillowstatic.com/cc_ft_960/ISb5uje01kbfxn1000000000.jpg,West Haven,CT,6516,"55,749",39,"$57,150 ",12.80%,91,-0.12%,"5,993",41,"22,801","11,249",41.250523,-72.977301,Homes,302
"149 Canton St UNIT 8,","$99,999 ",723,1,1,https://photos.zillowstatic.com/cc_ft_960/ISzjl94pm7pqsq1000000000.jpg,West Haven,CT,6516,"55,749",39,"$57,150 ",12.80%,91,-0.12%,"5,993",41,"22,801","11,249",41.284002,-72.983443,Homes,303
"269 Captain Thomas Blvd UNIT 11,","$159,900 ","1,008",2,2,https://photos.zillowstatic.com/cc_ft_960/IS7avgrkf9hg2z0000000000.jpg,West Haven,CT,6516,"55,749",39,"$57,150 ",12.80%,91,-0.12%,"5,993",41,"22,801","11,249",41.259858,-72.947302,Homes,304
"21 Curtiss Ave,","$179,900 ","1,144",3,2,https://maps.googleapis.com/maps/api/streetview?channel=mb-pdp-publicrecord&location=21+Curtiss+Ave%2C+West+Haven%2C+CT+06516&size=665x441&source=outdoor&client=gme-redfin&signature=G16_2PBTkvdCkcVZ9mIImlnC1ww=,West Haven,CT,6516,"55,749",39,"$57,150 ",12.80%,91,-0.12%,"5,993",41,"22,801","11,249",41.270199,-72.939363,Homes,305
"141 Center St,","$259,900 ",2847,--,null,https://maps.googleapis.com/maps/api/streetview?location=141+Center+St%2C+West+Haven%2C+CT+06516&size=960x720&key=AIzaSyARFMLB1na-BBWf7_R3-5YOQQaHqEJf6RQ&source=outdoor&&signature=mVsnMcnbWIa9gdtcQ_B1IvequDI=,West Haven,CT,6516,"55,749",39,"$57,150 ",12.80%,91,-0.12%,"5,993",41,"22,801","11,249",41.272452,-72.940335,Homes,306
"15 Atwood Ave,","$320,000 ","2,031",3,2,https://maps.googleapis.com/maps/api/streetview?channel=mb-ldp-publicrecord&location=15+Atwood+Ave%2C+West+Haven%2C+CT+06516&size=665x441&source=outdoor&client=gme-redfin&signature=FK2MvNuFHjM66FLRAhmeBqiQmgA=,West Haven,CT,6516,"55,749",39,"$57,150 ",12.80%,91,-0.12%,"5,993",41,"22,801","11,249",41.262835,-72.95212,Homes,307
"127 Spring St,","$239,900 ","1,386",5,2,https://maps.googleapis.com/maps/api/streetview?channel=mb-pdp-publicrecord&location=127+Spring+St%2C+West+Haven%2C+CT+06516&size=665x441&source=outdoor&client=gme-redfin&signature=i-dSMjRlMWiFRA9cLNctdNetFOE=,West Haven,CT,6516,"55,749",39,"$57,150 ",12.80%,91,-0.12%,"5,993",41,"22,801","11,249",41.286298,-72.952412,Homes,308
"64 Fairview Ave,","$310,000 ","1,032",3,1,https://photos.zillowstatic.com/cc_ft_960/ISb52i6fsg02060000000000.jpg,West Haven,CT,6516,"55,749",39,"$57,150 ",12.80%,91,-0.12%,"5,993",41,"22,801","11,249",41.250994,-72.965092,Homes,309
"29 Edward St,","$214,900 ",936,2,1,https://photos.zillowstatic.com/cc_ft_960/IS3fs602q1wi6j0000000000.jpg,West Haven,CT,6516,"55,749",39,"$57,150 ",12.80%,91,-0.12%,"5,993",41,"22,801","11,249",41.271539,-72.967937,Homes,310
"725 Island Ln UNIT 8,","$194,500 ","1,360",2,2,https://photos.zillowstatic.com/cc_ft_960/ISjnx857oihvlk0000000000.jpg,West Haven,CT,6516,"55,749",39,"$57,150 ",12.80%,91,-0.12%,"5,993",41,"22,801","11,249",41.25913,-72.978888,Homes,311
"116 Milton Ave,","$448,000 ","2,408",3,3,https://ssl.cdn-redfin.com/photo/234/mbpaddedwide/987/genMid.N10055987_0.jpg,West Haven,CT,6516,"55,749",39,"$57,150 ",12.80%,91,-0.12%,"5,993",41,"22,801","11,249",41.244244,-72.974644,Homes,312
"21 Ivy St,","$347,900 ","1,962",3,3,https://ssl.cdn-redfin.com/photo/234/mbpaddedwide/259/genMid.170334259_3.jpg,West Haven,CT,6516,"55,749",39,"$57,150 ",12.80%,91,-0.12%,"5,993",41,"22,801","11,249",41.251687,-72.963636,Homes,313
"377 Platt Ave,","$399,000 ","2,200",3,2,https://photos.zillowstatic.com/cc_ft_960/ISbh3brnqnwao11000000000.jpg,West Haven,CT,6516,"55,749",39,"$57,150 ",12.80%,91,-0.12%,"5,993",41,"22,801","11,249",41.263968,-72.962727,Homes,314
"40 Atwood Ave,","$249,000 ","1,472",3,2,https://maps.googleapis.com/maps/api/streetview?channel=mb-pdp-publicrecord&location=40+Atwood+Ave%2C+West+Haven%2C+CT+06516&size=665x441&source=outdoor&client=gme-redfin&signature=tLSrM1qHJnS3-B8p8V-9QKxYNrs=,West Haven,CT,6516,"55,749",39,"$57,150 ",12.80%,91,-0.12%,"5,993",41,"22,801","11,249",41.263483,-72.953159,Homes,315
"3 Marydale Rd,","$414,000 ","1,962",4,3,https://photos.zillowstatic.com/cc_ft_960/ISb95v5348reik0000000000.jpg,West Haven,CT,6516,"55,749",39,"$57,150 ",12.80%,91,-0.12%,"5,993",41,"22,801","11,249",41.262655,-72.972085,Homes,316
"183 South St,","$239,900 ","1,438",3,2,https://ssl.cdn-redfin.com/photo/234/mbpaddedwide/664/genMid.170320664_0.jpg,West Haven,CT,6516,"55,749",39,"$57,150 ",12.80%,91,-0.12%,"5,993",41,"22,801","11,249",41.24304,-72.979206,Homes,317
"191 Milton Ave,","$219,900 ","1,325",3,1,https://ssl.cdn-redfin.com/photo/234/mbpaddedwide/252/genMid.170334252_0.jpg,West Haven,CT,6516,"55,749",39,"$57,150 ",12.80%,91,-0.12%,"5,993",41,"22,801","11,249",41.24755,-72.97364,Homes,318
"271 Benham Hill Rd,","$262,900 ","1,630",3,2,https://maps.googleapis.com/maps/api/streetview?channel=mb-pdp-publicrecord&location=271+Benham+Hill+Rd%2C+West+Haven%2C+CT+06516&size=665x441&source=outdoor&client=gme-redfin&signature=jxszt02wzk6X2oyYjc93zqUpXRk=,West Haven,CT,6516,"55,749",39,"$57,150 ",12.80%,91,-0.12%,"5,993",41,"22,801","11,249",41.250205,-72.98362,Homes,319
"130 Hemlock St,","$349,900 ","2,430",6,2,https://ssl.cdn-redfin.com/photo/234/mbpaddedwide/366/genMid.170330366_1.jpg,West Haven,CT,6516,"55,749",39,"$57,150 ",12.80%,91,-0.12%,"5,993",41,"22,801","11,249",41.299328,-72.96289,Homes,320
"450 2nd Ave,","$114,900 ","1,688",3,2,https://photos.zillowstatic.com/cc_ft_960/ISfsy9xtp6001u0000000000.jpg,West Haven,CT,6516,"55,749",39,"$57,150 ",12.80%,91,-0.12%,"5,993",41,"22,801","11,249",41.273464,-72.941839,Homes,321
"78 Tuthill St,","$319,900 ","1,804",4,3,https://maps.googleapis.com/maps/api/streetview?channel=mb-pdp-publicrecord&location=78+Tuthill+St%2C+West+Haven%2C+CT+06516&size=665x441&source=outdoor&client=gme-redfin&signature=q7jIB4cJ6ZoX7TsFj1cGVYCUnPg=,West Haven,CT,6516,"55,749",39,"$57,150 ",12.80%,91,-0.12%,"5,993",41,"22,801","11,249",41.280607,-72.975155,Homes,322
"440 3rd Ave,","$449,900 ","2,482",6,3,https://ssl.cdn-redfin.com/photo/234/mbpaddedwide/581/genMid.170331581_0.jpg,West Haven,CT,6516,"55,749",39,"$57,150 ",12.80%,91,-0.12%,"5,993",41,"22,801","11,249",41.273265,-72.943068,Homes,323
"272 Terrace Ave,","$185,000 ",980,3,2,https://photos.zillowstatic.com/cc_ft_960/ISnu14zuynlyzs1000000000.jpg,West Haven,CT,6516,"55,749",39,"$57,150 ",12.80%,91,-0.12%,"5,993",41,"22,801","11,249",41.283733,-72.967028,Homes,324
"40 Boylston St,","$295,000 ",2160,--,null,https://photos.zillowstatic.com/cc_ft_960/IS33v8i72faruy0000000000.jpg,West Haven,CT,6516,"55,749",39,"$57,150 ",12.80%,91,-0.12%,"5,993",41,"22,801","11,249",41.282511,-72.958206,Homes,325
"135 Bluff Ave,","$230,659 ",1448,3,1,https://ssl.cdn-redfin.com/photo/234/mbpaddedwide/331/genMid.N316331_0.jpg,West Haven,CT,6516,"55,749",39,"$57,150 ",12.80%,91,-0.12%,"5,993",41,"22,801","11,249",41.256399,-72.96301,Homes,326
"134 Jones Hill Rd,","$340,000 ","1,800",5,3,https://photos.zillowstatic.com/cc_ft_960/ISfgxg4v9gwcnd0000000000.jpg,West Haven,CT,6516,"55,749",39,"$57,150 ",12.80%,91,-0.12%,"5,993",41,"22,801","11,249",41.240261,-72.984749,Homes,327
"110 Fenwick St,","$209,900 ","1,088",2,2,https://photos.zillowstatic.com/cc_ft_960/IS3jrwi6k10eom1000000000.jpg,West Haven,CT,6516,"55,749",39,"$57,150 ",12.80%,91,-0.12%,"5,993",41,"22,801","11,249",41.299695,-72.974396,Homes,328
"155 Bull Hill Ln APT 203,","$92,000 ","1,056",2,2,https://photos.zillowstatic.com/cc_ft_960/ISb5ym70su3cis0000000000.jpg,West Haven,CT,6516,"55,749",39,"$57,150 ",12.80%,91,-0.12%,"5,993",41,"22,801","11,249",41.27191,-72.983256,Homes,329
"16 Sorenson Rd,","$299,900 ","1,811",3,2,https://photos.zillowstatic.com/cc_ft_960/ISz7w5z2k9oybd0000000000.jpg,West Haven,CT,6516,"55,749",39,"$57,150 ",12.80%,91,-0.12%,"5,993",41,"22,801","11,249",41.26524,-72.96331,Homes,330
"32 Arlington St,","$279,900 ","1,533",4,2,https://photos.zillowstatic.com/cc_ft_960/IS3333vv7cd4ni0000000000.jpg,West Haven,CT,6516,"55,749",39,"$57,150 ",12.80%,91,-0.12%,"5,993",41,"22,801","11,249",41.248255,-72.965195,Homes,331
"268 1st Ave,","$315,000 ","3,000",8,3,https://photos.zillowstatic.com/cc_ft_960/ISb9parxgxqr2u0000000000.jpg,West Haven,CT,6516,"55,749",39,"$57,150 ",12.80%,91,-0.12%,"5,993",41,"22,801","11,249",41.275117,-72.939076,Homes,332
"10 Hugo St,","$210,579 ",1536,4,2,https://photos.zillowstatic.com/cc_ft_960/IS9hf85yhug7no0000000000.jpg,West Haven,CT,6516,"55,749",39,"$57,150 ",12.80%,91,-0.12%,"5,993",41,"22,801","11,249",41.302075,-72.962642,Homes,333
"700 Washington Ave,","$334,900 ","2,144",6,2,https://maps.googleapis.com/maps/api/streetview?channel=mb-pdp-publicrecord&location=700+Washington+Ave%2C+West+Haven%2C+CT+06516&size=665x441&source=outdoor&client=gme-redfin&signature=GM6BKaoQmGFBONwtgpPXteglmls=,West Haven,CT,6516,"55,749",39,"$57,150 ",12.80%,91,-0.12%,"5,993",41,"22,801","11,249",41.277769,-72.951192,Homes,334
"630 Ocean Ave,","$849,999 ","3,202",3,3,https://photos.zillowstatic.com/cc_ft_960/ISv4jisg31nced0000000000.jpg,West Haven,CT,6516,"55,749",39,"$57,150 ",12.80%,91,-0.12%,"5,993",41,"22,801","11,249",41.242411,-72.971072,Homes,335
"84 Honor Rd,","$229,000 ","1,152",3,1,https://ssl.cdn-redfin.com/photo/234/mbpaddedwide/908/genMid.170326908_5.jpg,West Haven,CT,6516,"55,749",39,"$57,150 ",12.80%,91,-0.12%,"5,993",41,"22,801","11,249",41.248113,-72.973266,Homes,336
"26 Savin Park #26,","$185,000 ","1,407",3,2,https://maps.google.com/maps/api/staticmap?sensor=false&style=feature%3Aadministrative.land_parcel%7Cvisibility%3Aoff&style=feature%3Alandscape.man_made%7Cvisibility%3Aoff&style=feature%3Atransit.station%7Chue%3A0xffa200&center=41.2594649%2C-72.952304&channel=mediabrowser-satellite&size=730x440&scale=1&maptype=satellite&format=jpg&zoom=19&client=gme-redfin&signature=F79XUqiuLEAgMDbIgmU_C1H7U6w=,West Haven,CT,6516,"55,749",39,"$57,150 ",12.80%,91,-0.12%,"5,993",41,"22,801","11,249",41.260216,-72.951613,Homes,337
"62 Morris Ave,","$329,900 ","2,300",3,3,https://photos.zillowstatic.com/cc_ft_960/ISrpcsq50hqe050000000000.jpg,West Haven,CT,6516,"55,749",39,"$57,150 ",12.80%,91,-0.12%,"5,993",41,"22,801","11,249",41.303914,-72.971515,Homes,338
"9 Bayview Pl,","$1,125,000 ","4,500",6,4,https://maps.googleapis.com/maps/api/streetview?channel=mb-pdp-publicrecord&location=9+Bayview+Pl%2C+West+Haven%2C+CT+06516&size=665x441&source=outdoor&client=gme-redfin&signature=KZBOwwLTSYrjhhIHVaBrL91WTYw=,West Haven,CT,6516,"55,749",39,"$57,150 ",12.80%,91,-0.12%,"5,993",41,"22,801","11,249",41.275407,-72.93698,Homes,339
"343 Beach St APT 604,","$349,000 ","1,704",2,2,https://maps.googleapis.com/maps/api/streetview?channel=mb-pdp-publicrecord&location=343+Beach+St+%23604%2C+West+Haven%2C+CT+06516&size=665x441&source=outdoor&client=gme-redfin&signature=1yS7NX6qdYMqoIU9-pk4aMZIDZA=,West Haven,CT,6516,"55,749",39,"$57,150 ",12.80%,91,-0.12%,"5,993",41,"22,801","11,249",41.259066,-72.941396,Homes,340
"768 Ocean Ave,","$504,804 ",3202,3,3,https://maps.googleapis.com/maps/api/streetview?location=768+Ocean+Ave%2C+West+Haven%2C+CT+06516&size=960x720&key=AIzaSyARFMLB1na-BBWf7_R3-5YOQQaHqEJf6RQ&source=outdoor&&signature=74j01xh_c0u_37gyM9u4UYxJ6Y4=,West Haven,CT,6516,"55,749",39,"$57,150 ",12.80%,91,-0.12%,"5,993",41,"22,801","11,249",41.24573,-72.968158,Homes,341
"71 Benham Hill Rd,","$239,900 ","1,684",3,1,https://photos.zillowstatic.com/cc_ft_960/ISzbf3p5iuhdam1000000000.jpg,West Haven,CT,6516,"55,749",39,"$57,150 ",12.80%,91,-0.12%,"5,993",41,"22,801","11,249",41.24413,-72.98709,Homes,342
"119 Campbell Ave,","$439,900 ","4,114",9,4,https://ssl.cdn-redfin.com/photo/234/mbpaddedwide/902/genMid.170315902_0.jpg,West Haven,CT,6516,"55,749",39,"$57,150 ",12.80%,91,-0.12%,"5,993",41,"22,801","11,249",41.261292,-72.945742,Homes,343
"18 Chin Clift Trl,","$359,900 ","1,900",3,3,https://photos.zillowstatic.com/cc_ft_960/ISrpkqutqecxrj0000000000.jpg,West Haven,CT,6516,"55,749",39,"$57,150 ",12.80%,91,-0.12%,"5,993",41,"22,801","11,249",41.250131,-72.990707,Homes,344
"6 Robart St,","$259,000 ","1,236",4,2,https://photos.zillowstatic.com/cc_ft_960/ISbhb1tof8c8pw0000000000.jpg,West Haven,CT,6516,"55,749",39,"$57,150 ",12.80%,91,-0.12%,"5,993",41,"22,801","11,249",41.297569,-72.971441,Homes,345
"157 Westfield St,","$183,068 ",1260,3,2,https://maps.googleapis.com/maps/api/streetview?location=157+Westfield+St%2C+West+Haven%2C+CT+06516&size=960x720&key=AIzaSyARFMLB1na-BBWf7_R3-5YOQQaHqEJf6RQ&source=outdoor&&signature=rW1b78WQYtY8pl8QiJ12Hj-AMYA=,West Haven,CT,6516,"55,749",39,"$57,150 ",12.80%,91,-0.12%,"5,993",41,"22,801","11,249",41.29929,-72.960858,Homes,346
"790 1st Ave APT 13,","$109,900 ",880,2,2,https://photos.zillowstatic.com/cc_ft_960/ISfw52buxbv08i1000000000.jpg,West Haven,CT,6516,"55,749",39,"$57,150 ",12.80%,91,-0.12%,"5,993",41,"22,801","11,249",41.284778,-72.952932,Homes,347
"223 York St,","$289,900 ","2,067",5,2,https://ssl.cdn-redfin.com/photo/234/mbpaddedwide/237/genMid.170320237_0.jpg,West Haven,CT,6516,"55,749",39,"$57,150 ",12.80%,91,-0.12%,"5,993",41,"22,801","11,249",41.276018,-72.961511,Homes,348
"59 Laurel St,","$239,900 ","1,627",3,2,https://ssl.cdn-redfin.com/photo/234/mbpaddedwide/002/genMid.170325002_0.jpg,West Haven,CT,6516,"55,749",39,"$57,150 ",12.80%,91,-0.12%,"5,993",41,"22,801","11,249",41.2537,-72.964277,Homes,349
"60 Andrews St,","$169,900 ","1,143",3,1,https://ssl.cdn-redfin.com/photo/234/mbpaddedwide/116/genMid.M9105116_0.jpg,West Haven,CT,6516,"55,749",39,"$57,150 ",12.80%,91,-0.12%,"5,993",41,"22,801","11,249",41.293293,-72.964903,Homes,350
"368 Jones Hill Rd,","$324,900 ","1,507",3,2,https://maps.googleapis.com/maps/api/streetview?channel=mb-pdp-publicrecord&location=368+Jones+Hill+Rd%2C+West+Haven%2C+CT+06516&size=665x441&source=outdoor&client=gme-redfin&signature=4Uf7i2qS0PA-4bmunI2pEXmPuPQ=,West Haven,CT,6516,"55,749",39,"$57,150 ",12.80%,91,-0.12%,"5,993",41,"22,801","11,249",41.247179,-72.979572,Homes,351
"202 Main St APT 1H,","$110,305 ",900,2,1,https://maps.googleapis.com/maps/api/streetview?location=202+Main+St%2C+West+Haven%2C+CT+06516&size=960x720&key=AIzaSyARFMLB1na-BBWf7_R3-5YOQQaHqEJf6RQ&source=outdoor&&signature=hy8oeB27_YJ_TjM_rq8TRERBE0k=,West Haven,CT,6516,"55,749",39,"$57,150 ",12.80%,91,-0.12%,"5,993",41,"22,801","11,249",41.273428,-72.944013,Homes,352
"36 Forest Rd,","$183,941 ",1356,4,1.5,https://photos.zillowstatic.com/cc_ft_960/ISyz93sf35kwcm1000000000.jpg,West Haven,CT,6516,"55,749",39,"$57,150 ",12.80%,91,-0.12%,"5,993",41,"22,801","11,249",41.296109,-72.959716,Homes,353
"12 Pagano Ct,","$349,900 ","2,332",6,2,https://photos.zillowstatic.com/cc_ft_960/ISfkcvwv7pafza1000000000.jpg,West Haven,CT,6516,"55,749",39,"$57,150 ",12.80%,91,-0.12%,"5,993",41,"22,801","11,249",41.268072,-72.941397,Homes,354
"47 Chestnut St,","$289,000 ","1,689",2,2,https://photos.zillowstatic.com/cc_ft_960/IS3jbco06h3ih50000000000.jpg,West Haven,CT,6516,"55,749",39,"$57,150 ",12.80%,91,-0.12%,"5,993",41,"22,801","11,249",41.268035,-72.953035,Homes,355
"24 Treadwell St,","$235,000 ","1,867",3,3,https://photos.zillowstatic.com/cc_ft_960/ISvctvbraqzrhc1000000000.jpg,West Haven,CT,6516,"55,749",39,"$57,150 ",12.80%,91,-0.12%,"5,993",41,"22,801","11,249",41.271313,-72.942409,Homes,356
"510 1st Ave UNIT 309,","$155,000 ",830,2,1,https://photos.zillowstatic.com/cc_ft_960/ISforxjs1yborl0000000000.jpg,West Haven,CT,6516,"55,749",39,"$57,150 ",12.80%,91,-0.12%,"5,993",41,"22,801","11,249",41.279897,-72.944877,Homes,357
"3 Hazel St,","$365,000 ","1,454",3,3,https://ssl.cdn-redfin.com/photo/234/mbpaddedwide/033/genMid.170325033_0.jpg,West Haven,CT,6516,"55,749",39,"$57,150 ",12.80%,91,-0.12%,"5,993",41,"22,801","11,249",41.252975,-72.963056,Homes,358
"375 Captain Thomas Blvd UNIT 28,","$210,000 ","1,344",2,2,https://ssl.cdn-redfin.com/photo/234/mbpaddedwide/878/genMid.170322878_2.jpg,West Haven,CT,6516,"55,749",39,"$57,150 ",12.80%,91,-0.12%,"5,993",41,"22,801","11,249",41.257407,-72.953246,Homes,359
"35 Smith St,","$249,900 ","1,588",4,3,https://maps.googleapis.com/maps/api/streetview?channel=mb-pdp-publicrecord&location=35+Smith+St%2C+West+Haven%2C+CT+06516&size=665x441&source=outdoor&client=gme-redfin&signature=whZUZaU61A-Kqpl8gSSHHcEXKeY=,West Haven,CT,6516,"55,749",39,"$57,150 ",12.80%,91,-0.12%,"5,993",41,"22,801","11,249",41.276441,-72.946421,Homes,360
"34 Newbern St,","$179,500 ","1,320",3,2,https://photos.zillowstatic.com/cc_ft_960/ISnisca2pnhuuo0000000000.jpg,West Haven,CT,6516,"55,749",39,"$57,150 ",12.80%,91,-0.12%,"5,993",41,"22,801","11,249",41.288609,-72.9734,Homes,361
"665 3rd Ave,","$199,900 ","1,700",4,2,https://photos.zillowstatic.com/cc_ft_960/ISf0hlw1r7j33v1000000000.jpg,West Haven,CT,6516,"55,749",39,"$57,150 ",12.80%,91,-0.12%,"5,993",41,"22,801","11,249",41.27928,-72.946127,Homes,362
"737 W Main St,","$549,000 ","2,500",4,3,https://ssl.cdn-redfin.com/photo/234/mbpaddedwide/990/genMid.170324990_1.jpg,West Haven,CT,6516,"55,749",39,"$57,150 ",12.80%,91,-0.12%,"5,993",41,"22,801","11,249",41.266751,-72.965506,Homes,363
"12 Collins Dr,","$204,418 ",1152,3,1.5,https://maps.googleapis.com/maps/api/streetview?location=12+Collins+Dr%2C+West+Haven%2C+CT+06516&size=960x720&key=AIzaSyARFMLB1na-BBWf7_R3-5YOQQaHqEJf6RQ&source=outdoor&&signature=OEml1kuG01iVtG7lURyQuxRX598=,West Haven,CT,6516,"55,749",39,"$57,150 ",12.80%,91,-0.12%,"5,993",41,"22,801","11,249",41.283271,-72.970775,Homes,364
